,county,state,city,zipcode,latitude,longitude,Estimate HOUSEHOLDS BY TYPE Total households Average household size  ,Percent Est EDUCATIONAL ATTAINMENT Population 25 years and over High school graduate (includes equivalency)  ,Percent Est EDUCATIONAL ATTAINMENT Population 25 years and over Bachelor's degree  ,Percent Est EMPLOYMENT STATUS Population 16 years and over In labor force  ,Percent Est EMPLOYMENT STATUS Civilian labor force   ,Percent Est EMPLOYMENT STATUS Civilian labor force Unemployment Rate  ,"Percent Est INCOME AND BENEFITS (IN 2021 INFLATION-ADJUSTED DOLLARS) Total households $15,000 to $24,999  ","Percent Est INCOME AND BENEFITS (IN 2021 INFLATION-ADJUSTED DOLLARS) Total households $25,000 to $34,999  ","Percent Est INCOME AND BENEFITS (IN 2021 INFLATION-ADJUSTED DOLLARS) Total households $35,000 to $49,999  ","Percent Est INCOME AND BENEFITS (IN 2021 INFLATION-ADJUSTED DOLLARS) Total households $50,000 to $74,999  ","Percent Est INCOME AND BENEFITS (IN 2021 INFLATION-ADJUSTED DOLLARS) Total households $75,000 to $99,999  ","Percent Est INCOME AND BENEFITS (IN 2021 INFLATION-ADJUSTED DOLLARS) Total households $100,000 to $149,999  ","Percent Est INCOME AND BENEFITS (IN 2021 INFLATION-ADJUSTED DOLLARS) Total households $150,000 to $199,999  ","Percent Est INCOME AND BENEFITS (IN 2021 INFLATION-ADJUSTED DOLLARS) Total households $200,000 or more  ",Estimate INCOME AND BENEFITS (IN 2021 INFLATION-ADJUSTED DOLLARS) Total households Median household income (dollars)  ,Estimate SEX AND AGE Total population Male  ,Percent Est SEX AND AGE Total population Male  ,Estimate SEX AND AGE Total population Female  ,Percent Est SEX AND AGE Total population Female  ,Percent Est SEX AND AGE Total population 20 to 24 years  ,Percent Est SEX AND AGE Total population 25 to 34 years  ,Percent Est SEX AND AGE Total population 35 to 44 years  ,Percent Est SEX AND AGE Total population 45 to 54 years  ,Percent Est SEX AND AGE Total population 55 to 59 years  ,Percent Est SEX AND AGE Total population 60 to 64 years  ,Percent Est SEX AND AGE Total population 65 to 74 years  ,Percent Est SEX AND AGE Total population 75 to 84 years  ,Percent Est SEX AND AGE Total population 85 years and over  
0,DeKalb,Georgia,Chamblee,30341,33.88913495762269,-84.28629629855175,2.85,26.2,22.1,73.5,2219,2.3,8.0,11.7,9.6,19.6,8.3,22.2,6.1,8.5,67692,1785,48.1,1923,51.9,6.3,18.2,15.6,13.8,9.6,5.6,7.0,0.9,0.7
1,Plumas,California,Chester,96020,40.2965854,-121.24113,2.22,25.7,17.1,57.4,1151,2.8,10.4,4.0,19.2,19.1,13.5,8.9,8.2,8.7,59459,1099,49.0,1143,51.0,1.5,10.0,10.9,11.8,4.6,11.2,25.2,8.3,3.1
2,Riverside,California,Cathedral City,92234,33.8174925,-116.4599893,3.25,28.5,12.3,63.2,2603,4.0,3.3,5.6,21.4,13.6,11.4,16.3,8.4,3.0,52340,2425,46.9,2742,53.1,6.3,13.2,14.6,13.6,6.4,6.6,5.0,6.9,0.0
3,Dane,Wisconsin,Belleville,53508,42.8754478,-89.5339233,2.55,28.3,24.3,73.1,2559,1.8,5.1,5.7,8.2,21.0,16.8,24.7,5.7,9.9,83625,2276,51.1,2175,48.9,5.6,10.0,14.7,12.9,7.4,8.0,10.1,3.5,3.6
4,Volusia,Florida,New Smyrna Beach,32169,29.0388915,-80.9009622,1.8,24.1,24.5,45.2,778,4.9,7.6,5.6,9.6,15.3,19.4,6.1,10.7,16.4,80208,880,48.2,945,51.8,0.7,2.8,5.8,13.9,11.6,15.7,25.5,13.3,5.4
5,Elkhart,Indiana,Goshen,46526,41.5521364,-85.8141027,2.48,33.6,14.8,50.1,2969,4.2,14.7,12.3,14.7,28.9,8.9,9.7,1.1,1.9,50262,3755,47.5,4149,52.5,6.1,7.2,12.6,5.4,3.0,2.9,12.3,12.0,9.6
6,Harris,Texas,Pasadena,77506,29.694761,-95.2089969,3.24,26.7,3.8,61.1,1781,14.9,16.5,20.5,13.0,21.7,15.4,5.4,2.0,0.0,41763,2006,48.1,2166,51.9,5.1,11.1,13.6,13.6,5.8,4.9,5.2,2.2,0.0
7,Pinellas,Florida,Treasure Island,33706,27.7696051,-82.766621,1.75,11.0,35.7,48.5,928,3.1,2.4,6.9,7.0,24.2,8.2,23.1,7.6,14.3,78906,919,45.2,1113,54.8,0.4,10.6,6.0,13.5,11.7,6.9,28.1,12.6,3.4
8,Hall,Nebraska,Doniphan,68832,40.77203820408185,-98.37021818534622,2.53,38.1,13.8,71.7,1726,1.1,5.8,9.5,12.8,16.7,18.1,18.1,12.1,3.2,76827,1457,48.8,1530,51.2,3.3,10.5,8.2,16.3,11.4,6.3,13.3,3.5,2.0
9,Johnson,Kansas,Shawnee,66203,39.0138987,-94.7121785,2.45,23.6,30.6,84.6,2418,6.6,6.3,18.1,5.5,25.8,19.3,12.3,6.0,1.2,63627,1941,54.8,1603,45.2,7.7,14.6,31.6,9.9,2.3,5.7,4.8,1.5,0.9
10,Minnehaha,South Dakota,Sioux Falls,57103,43.5460686,-96.6923006,2.3,33.5,15.6,77.6,1675,2.4,12.0,15.7,16.8,18.2,10.2,13.5,1.9,1.5,44600,1566,51.4,1482,48.6,5.7,14.7,13.1,11.9,8.4,4.3,7.3,2.5,0.7
11,Bristol,Massachusetts,North Attleborough,02760,41.9694022776733,-71.33448857810963,2.35,22.3,23.5,69.0,2904,3.8,5.7,2.2,11.2,7.4,13.3,21.7,15.9,13.1,100500,2668,50.1,2659,49.9,4.4,13.8,15.2,11.3,9.2,6.4,10.3,4.0,2.2
12,Nassau,New York,Garden City,11530,40.7352642,-73.5926864,1.78,19.0,18.4,45.2,3032,7.9,11.8,2.2,7.1,11.8,8.8,14.3,17.6,18.3,102784,3063,44.1,3886,55.9,24.2,5.1,2.9,6.3,2.5,2.7,11.4,11.9,3.3
13,Denver,Colorado,Denver,80210,39.6964831,-104.9805763,1.76,7.3,47.3,86.5,2718,3.0,2.3,8.5,10.1,20.0,13.3,14.9,9.5,14.3,79850,1944,56.1,1521,43.9,6.7,39.5,19.0,9.6,4.8,4.0,3.1,1.7,0.3
14,Ada,Idaho,Boise,83709,43.5898449,-116.320053,3.24,29.3,20.3,71.1,2802,4.8,2.3,1.8,7.0,17.2,15.1,21.9,14.9,16.4,106579,2679,52.0,2472,48.0,5.7,11.7,11.8,14.3,4.9,7.7,8.2,5.5,1.2
15,Los Angeles,California,Covina,91722,34.0997851,-117.907187,3.58,23.8,18.4,71.4,3088,5.6,2.7,4.1,12.6,11.2,20.8,15.9,21.5,4.9,87052,2770,50.8,2685,49.2,5.9,10.9,16.4,15.8,7.2,6.9,6.0,4.8,0.7
16,Los Angeles,California,Los Angeles,90064,34.027339121920946,-118.42893842398706,2.14,3.5,34.2,80.7,2680,5.5,5.4,7.3,5.2,19.2,13.2,9.5,12.0,14.6,74442,1905,49.2,1970,50.8,8.0,40.6,13.0,6.9,4.6,2.2,3.5,4.5,0.7
17,Orange,California,San Clemente,92672,33.427306517865404,-117.61234253272666,2.16,13.1,27.0,75.1,3660,4.8,1.2,6.0,12.9,16.2,22.2,14.0,9.9,11.8,86020,2836,52.5,2567,47.5,6.4,21.7,16.0,10.8,8.0,7.7,8.7,6.6,1.3
18,El Paso,Texas,El Paso,79927,31.6104355,-106.2802109,3.0,19.9,9.2,56.3,1654,1.4,11.2,4.1,32.9,26.4,5.3,10.4,1.0,0.0,43750,1458,39.9,2195,60.1,10.5,13.4,11.2,12.2,3.7,7.1,8.9,7.4,0.0
19,Fayette,Georgia,Riverdale,30296,33.5507841,-84.4523957,2.85,19.7,19.7,63.2,3162,5.2,4.7,2.3,13.5,10.6,29.1,18.2,12.8,8.3,86118,2491,40.3,3697,59.7,1.6,11.3,15.0,9.8,6.1,11.7,14.6,5.2,1.6
20,Marion,Indiana,Indianapolis,46224,39.78483381631025,-86.2410164809825,2.21,22.1,31.1,71.9,978,4.5,8.7,8.2,12.2,15.7,15.6,24.7,5.4,3.6,72708,857,48.5,910,51.5,3.1,13.4,15.4,16.0,9.2,2.5,8.9,4.6,1.9
21,Sevier,Utah,Richfield,84701,38.7473732,-112.1011945,3.18,30.1,9.2,59.8,1696,5.4,14.0,9.7,6.9,15.5,12.2,21.4,5.5,1.5,53875,2015,49.2,2080,50.8,6.8,8.9,14.5,10.5,4.1,4.2,8.2,3.4,1.5
22,Los Angeles,California,Duarte,91010,34.1403567330071,-117.97665648851996,2.44,28.1,15.4,50.4,2103,2.1,9.2,6.6,14.0,17.7,9.8,16.6,2.1,4.4,50924,2279,46.6,2610,53.4,4.4,12.9,9.0,13.6,7.1,6.8,13.6,9.2,5.4
23,Queens,New York,Queens,11417,40.671251,-73.842636,3.19,21.0,18.6,64.6,1976,8.8,4.8,2.1,8.4,11.5,6.4,32.5,10.7,10.5,105485,1773,45.2,2149,54.8,7.1,13.3,10.5,16.8,4.7,13.7,4.5,1.4,1.0
24,Duval,Florida,Jacksonville,32224,30.28823164723529,-81.44874257053266,3.01,25.2,16.7,60.9,2461,4.2,9.9,11.3,14.4,10.6,7.2,26.9,4.2,7.6,63342,2734,50.2,2711,49.8,3.2,21.2,13.1,8.0,5.6,4.0,5.5,5.2,1.9
25,El Paso,Texas,Anthony,79821,31.9602478,-106.601179,3.4,29.0,10.3,58.3,1855,7.1,9.5,15.1,26.4,12.2,12.8,10.5,1.9,2.8,46793,2200,52.4,2001,47.6,5.8,16.9,10.3,14.2,5.9,7.1,3.5,3.2,0.5
26,Lackawanna,Pennsylvania,Scranton,18503,41.4063445,-75.6614612,1.32,34.3,21.6,42.3,1147,8.5,22.3,12.9,12.9,12.2,0.5,2.8,1.1,0.8,21321,1437,50.5,1409,49.5,8.6,19.3,6.6,9.4,6.9,7.3,14.6,7.3,5.7
27,Oconee,Georgia,Watkinsville,30677,33.86966549909966,-83.44734559849661,2.77,19.0,28.4,62.9,2964,2.5,1.6,1.4,14.3,10.6,13.7,22.7,12.0,17.8,107734,2943,50.1,2930,49.9,3.7,6.7,15.6,15.7,6.0,7.4,10.4,4.2,3.0
28,Miami-Dade,Florida,Opa-locka,33054,25.9066386,-80.2356257,3.43,49.3,5.5,59.7,1670,11.1,18.4,8.2,29.5,14.1,4.9,4.7,0.0,5.4,36680,1932,55.7,1537,44.3,9.5,22.7,8.9,13.2,7.6,6.5,3.1,0.5,0.7
29,Lake,Illinois,Grayslake,60030,42.3438158,-88.0192635,2.74,7.5,36.2,77.9,4665,8.9,2.1,4.2,5.3,11.1,15.2,19.5,19.8,18.6,114682,3976,52.8,3560,47.2,8.3,13.9,12.4,14.2,8.2,8.0,8.8,1.6,0.2
30,Winnebago,Wisconsin,Oshkosh,54902,44.019849074598746,-88.58111042054047,2.04,35.4,18.7,62.2,2012,1.9,12.7,21.7,10.2,17.1,13.0,9.2,3.8,0.8,41011,1683,43.5,2183,56.5,7.9,12.0,11.5,9.2,8.2,5.7,7.2,7.5,8.9
31,Sedgwick,Kansas,Wichita,67211,37.649882325260606,-97.3193023245214,2.64,45.0,6.7,59.2,2041,7.7,21.4,17.5,19.8,16.6,8.4,3.0,0.0,0.0,34182,2028,46.3,2354,53.7,10.1,12.3,11.7,13.2,5.9,4.6,11.3,1.6,2.2
32,Brazoria,Texas,Alvin,77511,29.4106556,-95.2432803,2.58,25.5,16.8,61.4,2268,0.3,5.8,15.8,18.7,13.2,19.9,6.3,1.4,4.8,44081,2216,44.8,2727,55.2,11.6,20.0,14.4,7.4,3.1,3.4,7.2,2.8,1.6
33,Jefferson Parish,Louisiana,Harvey,70058,29.8755912,-90.0464735,3.17,18.5,24.3,65.5,1928,2.3,2.1,8.4,6.5,13.8,8.3,30.3,19.2,8.5,104643,1770,50.4,1739,49.6,9.7,9.1,7.8,16.2,11.4,4.0,12.5,4.0,1.6
34,Shawnee,Kansas,Topeka,66604,39.0392549,-95.7611715,2.28,20.2,29.5,66.9,3657,6.3,7.2,7.3,11.5,19.8,11.7,18.7,7.5,4.9,64417,2935,43.2,3865,56.8,6.8,8.1,15.5,9.8,8.0,6.6,11.6,7.2,2.8
35,Wayne,Michigan,Detroit,48227,42.4016362,-83.2006244,2.35,37.9,5.5,45.3,1290,12.7,10.1,12.4,24.6,11.9,6.0,1.9,3.0,1.5,34103,1563,46.3,1813,53.7,6.4,10.9,13.3,12.3,6.5,5.6,14.5,3.1,7.4
36,Dallas,Iowa,Clive,50325,41.614429,-93.8373719,2.28,19.5,34.1,74.3,4858,3.6,6.8,5.4,12.4,19.5,15.6,15.5,11.7,5.1,72985,3748,44.4,4701,55.6,6.7,14.4,13.0,12.5,4.4,2.8,9.0,5.7,2.5
37,Lee,,Cape Coral,33991,26.621369,-81.974637,2.56,40.3,13.5,66.4,4544,6.0,2.4,6.6,13.9,25.1,10.8,27.3,4.0,2.2,66237,3714,46.8,4223,53.2,7.7,7.2,12.3,15.6,15.1,6.4,12.3,6.5,0.9
38,Miami-Dade,Florida,Miami,33162,25.928183699999998,-80.1899598,3.81,33.8,12.9,64.2,2112,10.8,2.2,32.3,8.1,25.4,3.6,9.3,1.1,0.0,34738,2007,43.4,2621,56.6,4.8,18.8,8.7,9.9,7.3,7.6,3.7,5.2,1.2
39,Somerset,New Jersey,Watchung,07069,40.62988648647573,-74.44119981999309,2.84,15.1,32.5,64.5,3362,5.9,4.1,2.5,4.4,12.8,6.7,19.5,14.4,33.6,143889,2970,45.8,3513,54.2,4.8,9.4,12.9,12.5,5.6,7.2,14.6,7.2,4.3
40,San Bernardino,California,Victorville,92395,34.4717749078434,-117.28971127278984,2.94,27.1,10.3,65.9,3683,11.7,10.2,6.5,13.2,31.8,8.7,8.9,2.8,2.5,53178,3304,45.3,3987,54.7,6.3,16.9,17.4,16.5,2.6,3.2,7.5,0.9,0.0
41,San Bernardino,California,Victorville,92395,34.47186030316485,-117.28759706749557,2.94,27.1,10.3,65.9,3683,11.7,10.2,6.5,13.2,31.8,8.7,8.9,2.8,2.5,53178,3304,45.3,3987,54.7,6.3,16.9,17.4,16.5,2.6,3.2,7.5,0.9,0.0
42,New York,New York,New York,10012,40.7289635,-74.0005606,1.56,2.1,53.9,76.0,4333,9.3,4.5,1.1,9.5,17.3,2.5,25.2,5.8,23.8,106561,2441,41.1,3492,58.9,11.3,35.6,11.5,10.4,1.9,1.5,8.1,2.0,1.3
43,Ventura,California,Ventura,93001,34.2788018,-119.2741195,2.19,20.4,32.1,73.9,1974,2.8,4.8,3.7,5.3,12.9,19.6,24.2,9.2,12.2,97560,1763,56.9,1336,43.1,1.4,18.2,21.0,15.5,5.6,5.2,11.7,4.2,0.7
44,Howard,Texas,Big Spring,79720,32.23594361442725,-101.4723815642177,2.25,40.4,6.8,49.7,1657,4.8,16.6,11.2,8.5,23.1,8.2,5.1,3.9,1.3,35179,1816,45.5,2177,54.5,10.5,15.6,14.7,8.1,4.9,4.7,9.7,3.7,3.3
45,Clark,Washington,Vancouver,98607,45.60612,-122.4750923,2.46,16.9,30.3,65.4,3141,3.2,1.0,6.2,8.3,21.1,14.2,27.3,10.8,7.3,95913,3194,52.0,2949,48.0,4.3,15.2,14.7,12.0,8.4,6.7,7.7,2.2,2.2
46,Oakland,Michigan,Brandon Township,48462,42.8231028,-83.4411356,2.51,19.6,14.2,68.0,1749,4.7,1.6,5.4,6.4,17.8,24.4,22.9,7.8,10.6,79779,1783,56.9,1349,43.1,4.2,9.1,13.2,14.0,8.5,6.5,17.4,3.4,0.3
47,San Francisco,California,San Francisco,94109,37.7882282,-122.4124221,1.47,10.1,49.3,74.3,2736,6.5,6.2,1.5,8.7,16.5,11.6,12.9,15.2,17.5,89063,1901,49.4,1945,50.6,8.2,37.4,19.9,9.6,2.7,0.9,3.8,2.8,0.0
48,Dallas,Texas,Garland,75042,32.9302159,-96.6579028,3.44,19.0,10.1,63.8,2760,5.4,7.2,9.6,18.9,20.9,13.3,17.0,6.7,1.1,59551,2757,45.6,3293,54.4,8.1,13.1,7.2,12.0,6.8,8.2,6.2,3.2,0.8
49,King,Washington,Kent,98031,47.416445961211416,-122.19738136804196,3.23,25.2,20.5,64.0,2401,6.6,3.1,3.4,13.7,17.4,12.0,18.6,13.7,17.0,97917,2353,50.1,2341,49.9,5.6,17.9,11.1,11.2,9.7,4.8,10.9,3.3,1.4
50,Harris,Texas,Baytown,77520,29.7475814,-94.9767845,3.1,39.6,8.1,70.4,2734,6.8,6.5,5.5,21.6,24.8,12.1,13.1,3.7,0.0,53204,2825,52.0,2604,48.0,5.6,14.9,16.5,12.7,5.1,4.6,3.7,1.8,0.2
51,Harris,Texas,Houston,77007,29.779500363809458,-95.42201220279873,2.4,3.7,46.3,90.2,4047,2.7,1.6,2.5,2.0,5.8,8.3,8.8,23.9,46.5,196928,3364,57.9,2447,42.1,2.9,28.8,26.8,10.0,2.9,2.0,2.8,1.0,0.0
52,Denver,Colorado,Denver,80219,39.7007844,-105.0031457,2.61,28.3,19.9,73.6,2175,7.0,7.5,16.5,10.7,16.4,8.5,10.9,18.2,4.1,63110,1857,49.3,1913,50.7,5.4,23.4,14.6,14.6,4.7,4.8,2.7,3.8,0.4
53,Horry,South Carolina,Murrells Inlet,29576,33.59342348763222,-79.00242191218058,2.09,40.4,10.6,51.0,1742,5.0,10.9,14.5,13.1,16.7,16.1,17.3,4.5,0.6,54811,1816,48.9,1899,51.1,4.4,8.1,6.7,16.5,8.1,15.3,18.7,9.2,3.0
54,Sandoval,New Mexico,Rio Rancho,87124,35.2410191,-106.6872088,2.96,16.7,29.6,65.8,3753,5.8,4.3,1.3,12.6,23.8,12.3,22.7,14.4,6.3,77757,3952,49.7,4006,50.3,3.2,10.4,17.6,14.8,3.8,3.0,6.5,3.0,0.9
55,Clark,Nevada,Las Vegas,89146,36.1432394,-115.2256035,2.66,30.2,32.9,60.4,1593,5.5,8.7,3.7,8.9,8.4,11.3,25.0,7.7,17.1,97153,1552,52.3,1418,47.7,3.6,8.9,11.8,12.7,11.3,9.8,19.8,5.5,1.9
56,Nueces,Texas,Corpus Christi,78404,27.7651477,-97.4095311,2.77,48.3,4.5,51.5,1909,8.1,12.6,10.5,6.3,7.8,7.0,4.1,1.4,1.5,15325,2303,42.6,3101,57.4,4.2,7.5,14.2,14.7,3.2,3.3,6.4,2.5,1.1
57,Riverside,California,Perris,92570,33.7219,-117.2932601,3.52,41.3,0.6,56.1,1909,10.7,16.8,13.9,9.9,14.9,11.8,16.0,4.5,1.8,46923,2220,47.8,2426,52.2,6.2,9.0,12.7,14.6,3.1,5.0,6.9,3.9,1.5
58,Adams,Colorado,Westminster,80234,39.9157270619638,-105.02120373881948,2.06,20.9,25.7,78.1,3147,2.3,2.0,8.0,12.5,32.1,12.9,10.7,7.0,10.1,60853,2348,51.9,2177,48.1,8.5,26.9,15.5,11.4,7.1,6.4,6.4,2.0,0.6
59,Shelby,Tennessee,Memphis,38133,35.202818,-89.7912128,2.86,26.6,21.4,77.9,2510,12.1,10.5,13.7,8.8,19.9,16.5,18.8,6.8,2.5,69604,1926,43.4,2510,56.6,4.9,19.0,14.4,10.1,5.6,8.5,4.8,0.3,0.2
60,Harris,Texas,Baytown,77521,29.75223335612872,-94.96357564612534,2.84,25.5,1.7,58.4,2365,6.8,15.5,9.9,10.4,13.6,20.3,11.9,0.0,0.0,46071,2761,51.8,2574,48.2,7.6,15.2,10.6,15.3,6.2,6.0,5.4,3.7,1.2
61,Macomb,Michigan,St. Clair Shores,48081,42.5024769,-82.8976387,2.02,22.8,15.1,55.1,847,7.2,4.4,16.1,21.0,21.6,18.6,11.4,3.5,0.6,58935,863,49.7,872,50.3,6.1,15.0,8.4,7.0,3.6,9.7,20.9,12.7,2.2
62,Travis,Texas,Austin,78704,30.2335061,-97.7584974,1.89,18.9,41.9,86.3,2604,2.4,3.4,7.7,15.9,11.1,11.4,22.5,7.0,14.9,84963,1754,53.9,1500,46.1,8.2,38.0,17.7,12.8,4.8,1.8,0.8,3.6,0.6
63,Dallas,Texas,Dallas,75235,32.8197735,-96.8351253,2.06,18.1,20.8,71.0,2733,3.3,10.7,10.8,12.3,26.7,12.8,11.1,3.2,2.6,53850,2544,57.2,1904,42.8,10.4,32.4,12.7,11.0,8.0,4.1,4.5,0.6,0.0
64,Los Angeles,California,Los Angeles,91342,34.3093045,-118.4318723,3.98,22.6,11.9,66.6,3214,5.9,10.5,11.5,15.0,15.4,15.7,15.4,9.7,3.9,68194,3229,48.5,3429,51.5,9.4,12.0,13.5,10.7,6.3,6.2,7.1,0.7,1.4
65,Volusia,Florida,New Smyrna Beach,32169,29.0387088,-80.9005949,1.8,24.1,24.5,45.2,778,4.9,7.6,5.6,9.6,15.3,19.4,6.1,10.7,16.4,80208,880,48.2,945,51.8,0.7,2.8,5.8,13.9,11.6,15.7,25.5,13.3,5.4
66,Volusia,Florida,New Smyrna Beach,32169,29.0345223,-80.9129731,2.06,20.8,15.6,44.5,1553,0.0,8.0,8.3,10.0,18.9,11.8,10.8,9.8,7.3,55263,1745,44.8,2147,55.2,7.0,1.5,6.2,8.1,16.4,14.9,21.6,8.6,3.9
67,Los Angeles,California,Los Angeles,90007,34.0244979,-118.277885,2.28,3.6,44.6,39.8,1157,20.8,6.7,9.1,7.2,10.3,2.6,2.3,0.0,1.2,10783,1540,52.6,1385,47.4,65.2,7.6,0.2,1.0,0.8,0.5,0.9,0.4,0.0
68,Camden,New Jersey,Audubon,08106,39.8903489,-75.0664514,2.59,27.1,25.5,71.4,1749,3.0,7.9,6.5,10.8,14.5,16.9,19.7,11.1,11.3,86875,1603,48.1,1733,51.9,2.9,10.7,18.9,11.8,9.3,5.8,7.5,2.8,0.7
69,Tulsa,Oklahoma,Tulsa,74135,36.118702394882675,-95.93808054003387,1.74,24.0,27.3,57.5,1974,4.1,12.1,8.2,14.3,20.9,12.2,16.4,2.1,4.0,51856,1561,40.0,2338,60.0,3.6,14.4,9.3,13.7,8.3,8.7,16.7,3.8,7.3
70,Hertford,North Carolina,Ahoskie,27910,36.2758818,-76.9733972,2.47,33.6,9.9,55.2,1754,14.4,14.9,12.9,14.5,15.8,9.7,6.3,1.0,4.5,36205,1645,42.6,2216,57.4,7.8,13.8,10.5,11.1,9.0,7.4,11.1,6.0,2.2
71,Union,New Jersey,Westfield,07090,40.6485672,-74.3470628,2.79,6.9,41.2,68.8,2874,2.3,3.6,2.2,6.5,6.4,7.4,15.5,13.5,40.5,159345,2706,47.8,2954,52.2,2.3,7.5,11.5,18.5,6.4,4.3,12.7,3.0,1.0
72,Harris,Texas,Baytown,77521,29.758477092742847,-94.96406323541243,2.71,26.5,15.7,66.2,2870,11.5,7.0,9.8,14.6,20.1,15.3,15.9,6.9,0.0,58080,3316,55.7,2639,44.3,8.8,21.0,9.1,11.7,3.0,4.3,5.9,3.9,1.9
73,Nassau,New York,Port Washington,11050,40.8311509,-73.6861329,3.07,10.3,37.9,70.7,2800,3.3,4.0,5.1,1.2,8.0,5.7,25.9,10.2,30.7,131845,2638,51.2,2512,48.8,4.2,9.4,12.9,17.2,5.6,5.7,7.6,4.1,3.8
74,Clark,Nevada,Henderson,89052,35.986981,-115.1432661,3.68,20.0,24.1,73.5,2029,6.8,0.0,7.2,14.2,4.8,31.4,21.9,11.5,9.0,97931,1612,46.7,1838,53.3,10.3,22.2,13.6,17.4,5.6,0.5,3.1,4.8,0.0
75,Clark,Nevada,Las Vegas,89115,36.2256854550347,-115.0816208109294,3.75,36.4,9.8,67.5,1725,7.0,9.7,11.9,19.1,16.3,12.0,20.9,0.0,3.4,54107,1588,46.3,1844,53.7,6.4,22.7,11.5,9.9,7.9,3.8,4.4,1.4,0.0
76,Dallas,Texas,Dallas,75211,32.7400249657559,-96.8803006910324,3.47,26.7,11.6,67.4,2040,6.7,9.9,14.9,19.6,18.1,9.0,15.8,7.0,2.4,54088,2119,54.9,1739,45.1,6.7,13.7,8.4,15.6,9.5,5.0,8.1,3.3,1.6
77,El Paso,Texas,El Paso,79936,31.799564,-106.303303,2.94,24.5,12.8,59.3,2738,12.2,7.3,9.0,17.8,19.6,11.8,12.8,3.9,2.4,51184,2854,45.8,3374,54.2,4.8,14.9,11.8,10.0,4.7,6.8,11.6,2.7,1.1
78,Erie,Pennsylvania,Erie,16505,42.0977477,-80.1688676,1.76,41.3,25.9,60.2,2012,10.3,10.2,4.4,13.0,25.5,11.5,12.1,8.3,3.2,58327,1845,49.9,1853,50.1,6.5,5.8,9.4,21.3,7.6,8.3,18.6,6.1,1.0
79,Cumberland,Maine,Portland,04103,43.68888883406815,-70.32735421655376,2.57,21.7,23.4,68.9,3213,7.4,3.3,13.4,7.0,25.4,8.3,20.0,3.2,10.3,64586,3052,51.1,2921,48.9,3.9,19.7,11.3,7.0,8.7,8.3,8.4,4.2,3.3
80,Pinellas,Florida,Belleair Bluffs,33770,27.920742,-82.815302,1.88,26.8,14.3,55.1,1473,5.6,13.1,7.0,15.2,11.4,13.9,9.5,2.7,8.4,44469,1338,44.9,1644,55.1,1.0,7.4,8.9,12.4,11.3,8.3,20.9,12.6,2.7
81,El Paso,Texas,El Paso,79901,31.755827103020586,-106.4883835774643,1.87,20.4,4.9,21.7,256,7.0,23.9,21.7,18.1,2.2,11.2,0.0,0.0,1.1,26765,984,77.7,282,22.3,7.7,30.6,17.9,13.7,7.3,5.3,2.4,2.1,1.9
82,Lucas,Ohio,Toledo,43623,41.69233428664061,-83.62334745898428,1.48,24.7,17.7,62.9,907,0.0,17.8,6.9,11.4,18.2,7.1,12.2,0.6,0.0,34492,735,46.9,832,53.1,12.0,10.0,6.6,15.7,11.0,8.1,15.6,6.7,2.6
83,New York,New York,New York,10016,40.75104,-73.9822517,1.82,6.4,38.8,85.2,2490,2.7,2.4,6.2,0.9,2.3,8.1,18.0,9.7,43.9,165911,1463,41.0,2104,59.0,1.8,24.7,13.7,26.1,0.8,3.5,8.1,0.6,0.5
84,Arapahoe,Colorado,Englewood,80110,39.637141876130556,-105.02534481396142,3.02,22.1,22.7,75.1,2685,4.7,3.2,6.6,12.7,12.6,16.5,19.4,14.8,7.3,85183,2282,52.1,2094,47.9,7.1,19.7,17.5,7.7,7.4,3.2,7.9,3.3,0.3
85,Delaware,Pennsylvania,Aston,19014,39.8757565,-75.4496395,2.43,29.3,25.9,64.6,2821,6.4,5.4,5.8,6.3,13.0,10.4,27.4,14.9,13.2,106384,2203,41.9,3049,58.1,7.6,12.1,10.9,12.7,6.1,4.6,10.2,4.6,2.8
86,Alameda,California,Fremont,94539,37.50415,-121.9370543,2.78,12.1,39.3,63.6,497,5.2,0.0,2.3,5.5,8.9,8.6,27.1,25.3,22.4,138594,562,50.0,563,50.0,1.8,24.4,28.0,4.8,2.7,3.4,3.0,0.5,0.0
87,Kauai,Hawaii,Kapa?a,96746,22.0753947,-159.3207134,3.26,22.9,30.9,65.1,1539,5.1,5.4,2.9,14.2,0.0,12.8,19.7,13.4,12.1,98627,1255,46.0,1472,54.0,0.0,13.5,19.8,23.2,3.5,3.0,12.5,5.4,2.4
88,Sedgwick,Kansas,Wichita,67208,37.709044878975256,-97.2820906040892,3.26,29.9,9.6,67.1,1306,13.8,12.7,8.7,14.2,16.2,18.6,3.4,2.7,0.0,37898,1536,51.7,1437,48.3,7.6,18.1,9.4,6.8,4.9,4.0,4.2,1.3,0.8
89,Scott,Minnesota,Prior Lake,55372,44.7138121,-93.4262026,2.55,17.1,35.7,73.4,1924,1.4,3.8,3.6,3.8,26.3,17.1,20.9,6.7,16.0,90255,1913,55.2,1552,44.8,3.9,8.2,21.2,11.9,4.6,5.1,8.9,4.5,3.2
90,Bernalillo,New Mexico,Albuquerque,87110,35.1087602,-106.5926147,1.98,34.3,5.6,60.9,1443,8.1,15.7,6.8,15.7,20.5,16.3,4.7,0.7,2.2,43358,1419,52.0,1311,48.0,5.9,17.9,10.3,15.9,9.8,7.6,12.2,2.3,1.8
91,Sedgwick,Kansas,Wichita,67208,37.70928455514085,-97.28094744932109,3.26,29.9,9.6,67.1,1306,13.8,12.7,8.7,14.2,16.2,18.6,3.4,2.7,0.0,37898,1536,51.7,1437,48.3,7.6,18.1,9.4,6.8,4.9,4.0,4.2,1.3,0.8
92,Isabella,Michigan,Mount Pleasant,48858,43.6113693,-84.7511476,2.27,27.2,19.0,61.9,2655,6.3,8.7,10.8,10.5,23.4,14.9,12.3,4.0,5.9,61509,2528,48.4,2692,51.6,4.8,15.0,11.5,14.2,7.3,6.0,10.0,6.0,3.9
93,Lubbock,Texas,Lubbock,79416,33.5927233,-101.9380609,2.51,14.9,31.3,54.0,1983,0.0,5.9,9.7,15.7,18.0,14.5,13.0,0.0,7.1,51280,1436,34.6,2719,65.4,30.6,12.3,6.1,2.6,5.0,7.6,7.7,2.0,0.4
94,,Georgia,Doraville,30340,33.9123645,-84.2635892,2.43,21.6,32.7,80.2,3292,2.6,14.1,7.5,10.6,28.1,23.3,8.7,2.5,1.2,56819,2615,49.5,2671,50.5,5.3,19.8,16.0,13.1,4.0,5.6,9.4,0.2,0.4
95,Alachua,Florida,Gainesville,32607,29.657329,-82.40691486,2.46,11.3,26.0,68.4,5982,2.2,13.5,12.3,12.1,11.9,9.6,9.7,3.4,5.8,40852,4912,51.9,4561,48.1,37.8,17.6,12.7,5.8,3.0,1.7,3.3,3.5,1.8
96,Hamilton,Tennessee,Ooltewah,37363,35.0688143,-85.0732693,2.31,28.7,15.5,55.3,4526,5.2,6.3,7.0,9.6,22.7,16.3,19.2,5.1,4.4,71266,4588,47.9,4996,52.1,6.6,16.5,15.0,11.6,7.9,6.5,10.3,4.4,3.3
97,Los Angeles,California,Los Angeles,90013,34.0458382,-118.2503325,1.26,16.9,18.7,56.5,800,11.4,6.3,4.5,0.0,10.5,6.6,11.5,1.5,1.5,11949,1094,74.9,367,25.1,3.9,46.7,3.9,15.6,6.4,17.9,2.5,0.0,0.0
98,Oklahoma,Oklahoma,Oklahoma City,73117,35.46395699,-97.42405216,2.4,34.9,14.9,58.7,1861,1.3,5.6,14.3,13.6,25.5,11.8,12.2,0.0,0.5,50000,2089,49.4,2144,50.6,6.9,12.0,18.5,7.7,5.7,4.9,9.2,6.6,2.1
99,Fort Bend,Texas,Sugar Land,77479,29.58933828578715,-95.6762545479375,3.58,12.0,22.9,52.4,1329,16.5,5.0,0.0,6.9,8.9,11.1,16.8,14.0,35.3,147679,1556,50.2,1546,49.8,5.7,3.3,6.2,21.3,9.3,8.0,4.0,15.3,1.4
100,Christian,Missouri,Ozark,65721,37.0760081,-93.2309405,2.4,22.0,27.6,65.7,2506,7.6,10.9,8.0,17.8,18.0,17.9,10.2,6.3,6.2,56917,2451,52.1,2253,47.9,10.1,9.1,15.6,11.5,2.9,6.4,9.4,3.5,3.8
101,Liberty,Texas,Dayton,77535,30.048587458707615,-94.88354425381524,3.44,42.1,11.3,53.5,3164,7.2,8.3,8.4,11.7,28.2,10.8,13.0,9.2,1.6,58042,3576,44.9,4393,55.1,6.3,11.4,12.7,14.0,4.2,6.7,8.6,2.4,0.3
102,DeKalb,Illinois,Sandwich,60548,41.6460735,-88.614352,2.29,36.7,12.7,56.6,998,3.2,10.2,9.9,13.3,18.6,18.3,13.4,4.0,2.7,58052,926,43.7,1195,56.3,6.6,12.8,10.4,12.0,4.6,7.7,16.2,7.8,1.4
103,,Maryland,Baltimore,21231,39.2841163,-76.5876419,1.62,8.7,38.2,82.8,3166,1.2,7.9,2.5,6.4,16.7,14.0,14.8,10.6,20.8,93872,2244,57.1,1686,42.9,5.3,49.0,16.4,6.9,4.0,3.7,9.1,1.3,1.5
104,Sedgwick,Kansas,Wichita,67207,37.679108683072904,-97.25682393038512,2.21,28.4,11.3,67.7,1911,5.7,17.1,14.3,10.6,13.2,21.5,5.7,2.8,0.0,37865,1976,55.2,1606,44.8,6.3,21.0,12.2,11.4,5.5,3.5,11.7,2.2,0.9
105,Laclede,Missouri,Lebanon,65536,37.6734219,-92.6574762,2.51,42.9,14.0,65.6,2752,14.6,9.8,21.3,10.0,23.2,19.7,3.0,1.3,1.2,46094,2656,46.9,3013,53.1,3.8,14.0,10.1,12.9,7.3,3.1,7.3,8.0,1.5
106,,Georgia,Douglasville,30134,33.7532961,-84.7414356,2.64,39.3,11.1,55.5,1418,2.5,13.4,8.9,20.9,24.6,12.3,3.6,0.0,0.8,42878,1353,42.7,1817,57.3,5.6,11.6,22.9,8.6,7.3,5.4,7.2,4.3,1.7
107,Baxter,Arkansas,Mountain Home,72653,36.34540956667038,-92.3772905920166,2.17,31.2,12.0,50.2,2220,7.4,16.1,17.0,14.3,19.1,11.6,8.8,2.4,1.0,38558,2562,50.6,2502,49.4,8.8,10.0,11.0,11.6,3.9,9.1,13.6,9.5,4.0
108,Liberty,Texas,Liberty,77575,30.06477,-94.79641,2.35,44.1,9.2,40.9,1755,16.3,20.9,12.6,11.8,17.8,7.3,11.3,3.2,2.2,36802,2395,45.4,2878,54.6,6.6,10.3,15.0,10.2,5.0,4.4,11.2,14.8,3.0
109,Marshall,Iowa,Marshalltown,50158,42.039405101246665,-92.90113956398615,3.39,31.4,8.6,69.9,1932,6.7,7.6,11.6,18.1,22.1,14.5,14.1,0.3,2.9,57188,1903,48.4,2026,51.6,8.1,7.7,14.3,11.5,6.2,3.4,7.1,1.9,0.6
110,Dallas,Iowa,Adel,50003,41.6137584,-94.0168308,2.56,22.2,30.2,72.7,3308,3.8,4.2,6.4,12.8,20.5,11.9,23.4,3.3,9.4,68806,3202,51.8,2976,48.2,5.0,8.8,19.8,11.2,6.7,5.6,7.8,4.4,0.7
111,New York,New York,New York,10013,40.722075,-74.0026298,1.69,4.4,64.5,78.6,1963,1.9,3.1,8.8,1.2,7.5,9.8,17.7,19.7,24.8,137882,1615,59.5,1099,40.5,6.4,23.4,22.0,11.1,3.6,6.2,13.5,3.7,1.1
112,Volusia,Florida,Daytona Beach,32114,29.2246324,-81.0305084,1.77,22.5,11.7,48.3,720,17.5,11.4,10.7,2.4,37.8,2.8,5.6,1.2,1.3,38375,1061,65.9,550,34.1,5.0,21.9,14.5,12.0,7.7,4.5,19.3,5.3,1.5
113,Nassau,New York,FRANKLIN SQUARE,11010,40.6877999,-73.6859004,3.01,22.5,24.7,67.3,2601,2.8,2.3,1.4,5.1,7.3,17.6,23.1,20.2,21.0,130647,2216,45.6,2643,54.4,3.4,12.0,19.1,10.6,4.5,6.2,11.7,6.1,1.5
114,Palm Beach,Florida,Palm Beach Gardens,33410,26.791065148029823,-80.10687210466908,2.82,39.2,17.3,69.8,3380,8.6,11.2,13.7,9.5,27.2,8.6,20.4,0.8,2.1,62149,2936,47.8,3207,52.2,8.4,17.1,10.0,13.2,3.8,6.8,7.4,6.6,0.7
115,Harris,Texas,Houston,77028,29.8360472,-95.3025319,3.04,40.6,5.3,51.3,1897,15.9,16.5,23.3,11.5,13.5,4.3,8.6,2.4,0.0,30000,2546,47.4,2821,52.6,3.2,12.7,13.2,11.0,6.3,5.5,10.0,2.9,2.2
116,San Bernardino,California,Rancho Cucamonga,91730,34.10647939270153,-117.62754459644654,2.92,22.2,18.4,61.9,1997,6.3,0.5,3.5,4.9,12.6,19.2,22.4,17.5,17.4,115125,1969,52.7,1770,47.3,6.6,9.9,13.6,13.0,5.3,6.6,14.6,5.8,4.5
117,Harris,Texas,Houston,77072,29.688532,-95.5721419,3.59,29.9,10.4,68.8,1895,1.4,11.0,13.1,20.7,0.0,0.0,12.9,3.6,23.9,0,1751,54.6,1457,45.4,14.4,22.6,12.3,17.7,0.9,4.8,3.1,0.8,4.3
118,Shelby,Tennessee,Cordova,38018,35.155177,-89.7852423,2.38,24.5,23.1,72.8,3118,4.7,0.8,5.8,23.2,29.4,14.2,14.1,4.9,0.9,59599,2334,40.6,3408,59.4,2.9,20.4,13.8,13.7,4.8,3.4,9.2,2.0,0.6
119,Mecosta,Michigan,Mecosta,49332,43.628915,-85.268624,2.11,38.5,13.6,42.2,1083,6.2,17.9,5.9,19.4,25.1,11.8,12.2,1.2,0.7,52750,1467,48.2,1574,51.8,2.3,11.4,7.3,8.3,8.0,10.5,23.4,7.5,2.0
120,Mecklenburg,North Carolina,Matthews,28105,35.1384532,-80.7157677,2.28,21.9,33.0,83.8,2259,2.6,1.6,3.9,25.3,31.6,6.3,15.5,5.9,5.1,56722,1585,47.3,1768,52.7,3.4,21.6,23.5,14.2,5.6,4.7,5.0,0.0,0.0
121,Pima,Arizona,Green Valley,85614,31.912997885655233,-110.98083143301076,3.12,24.4,22.6,66.9,1627,2.1,6.1,4.7,10.5,37.5,16.3,12.7,2.3,3.6,63354,1776,48.9,1858,51.1,5.9,11.6,11.6,12.8,7.6,4.5,6.7,3.7,0.6
122,Essex,Massachusetts,Haverhill,01830,42.7935917,-71.0378909,2.75,29.2,24.6,70.4,2066,3.4,2.7,7.0,9.3,12.2,6.2,23.1,16.7,20.7,124492,1833,51.9,1698,48.1,9.1,7.8,10.9,16.8,10.4,9.7,9.3,2.5,2.6
123,Pecos,Texas,Fort Stockton,79735,30.8945814,-102.8799782,2.55,41.5,5.9,58.1,1184,1.2,11.6,32.2,11.1,9.6,3.3,5.9,3.6,4.5,32124,1308,44.9,1606,55.1,10.8,12.0,14.4,5.5,5.8,3.4,5.8,8.2,3.2
124,Jackson,Missouri,Blue Springs,64014,39.0264303,-94.2528419,2.64,26.2,17.5,59.2,2549,3.2,6.4,9.2,13.3,28.5,12.2,15.9,2.0,2.3,61991,2832,48.5,3005,51.5,5.4,16.4,9.1,10.0,4.5,6.0,11.1,4.1,3.8
125,Ross,Ohio,Chillicothe,45601,39.3656573,-82.9793887,1.85,50.9,9.3,51.2,1375,3.9,20.3,22.9,18.5,11.5,8.8,4.1,2.3,2.0,33930,1586,51.0,1523,49.0,7.0,17.3,10.9,15.0,6.2,7.5,11.7,6.1,1.6
126,Bossier Parish,Louisiana,Bossier City,71111,32.5371824,-93.7069497,2.52,45.3,6.1,55.2,2711,6.3,12.2,9.8,12.2,15.1,5.7,10.6,1.2,0.2,33069,2959,47.4,3288,52.6,6.7,23.0,13.2,10.0,3.3,5.6,7.0,2.1,1.5
127,Stanly,North Carolina,Albemarle,28001,35.346768,-80.1650109,2.61,41.9,5.4,64.6,1785,3.5,5.2,21.6,6.1,23.7,13.8,17.4,4.3,1.3,57434,1715,51.6,1606,48.4,7.0,10.4,11.7,17.2,4.2,4.9,15.3,1.5,3.3
128,Bradford,Florida,Starke,32091,29.932698,-82.1185377,2.14,42.5,6.0,32.8,1474,6.0,8.6,6.6,12.3,33.4,4.1,8.9,3.0,0.0,49310,3061,64.6,1676,35.4,4.8,25.1,16.7,13.2,7.5,5.1,10.8,6.2,3.1
129,Cook,Illinois,Alsip,60803,41.67337244322894,-87.71846064301707,2.4,32.9,13.4,62.4,3063,12.2,11.4,8.3,14.4,21.9,11.5,10.0,1.8,5.7,50739,3354,53.1,2962,46.9,5.6,10.4,17.4,10.8,3.7,6.4,12.5,3.5,2.0
130,Nassau,Florida,Fernandina Beach,32034,30.618405126600962,-81.51553545769369,2.73,24.7,31.1,51.4,2847,16.8,0.0,5.7,3.3,13.1,27.4,10.8,11.8,21.3,95495,3292,44.3,4134,55.7,1.0,4.9,17.6,14.0,7.3,7.3,10.1,7.9,2.1
131,Tangipahoa Parish,Louisiana,Amite City,70422,30.726647321386594,-90.51860652395813,1.95,37.0,6.3,43.5,937,9.4,15.8,3.6,39.0,21.8,0.5,0.0,0.0,6.0,39709,1136,45.9,1338,54.1,2.1,16.1,7.7,14.0,7.5,1.6,20.7,12.4,4.9
132,Orange,California,Orange,92867,33.8060123,-117.8351953,3.14,23.4,20.0,66.0,3054,1.7,5.8,7.2,8.1,17.2,14.9,14.0,8.9,16.7,82660,2962,49.6,3007,50.4,4.0,16.0,12.6,12.4,7.7,4.9,6.0,4.9,1.3
133,Maricopa,Arizona,Phoenix,85016,33.49493984854175,-112.0284774294742,1.8,13.1,27.5,70.9,3337,0.4,5.6,10.8,9.0,14.7,12.9,11.3,7.8,17.4,69829,2490,45.1,3028,54.9,5.6,20.3,20.9,7.1,4.4,4.6,10.7,7.0,3.6
134,Bartow,Georgia,Cartersville,30121,34.17091693028526,-84.78318874667983,1.98,40.4,20.2,71.4,1864,9.2,5.1,16.1,27.5,9.3,12.6,11.3,8.4,6.4,44658,1673,54.8,1382,45.2,5.1,18.7,14.4,11.5,6.8,9.9,9.5,3.8,2.5
135,Cumberland,Tennessee,Crossville,38555,35.98708482998815,-85.03883195190816,2.16,48.1,6.1,57.5,2202,16.1,19.4,10.0,18.9,9.5,13.9,3.0,0.9,1.2,33806,1779,39.7,2701,60.3,9.6,14.7,14.1,9.7,9.4,6.0,7.7,4.5,3.5
136,Muskingum,Ohio,Zanesville,43701,39.9081658,-82.0152535,2.17,55.3,8.9,56.3,1857,8.4,20.6,7.1,10.1,22.8,10.5,9.3,2.4,1.3,41295,1839,46.4,2123,53.6,5.0,12.2,13.0,11.9,8.4,8.6,11.7,7.5,2.2
137,Kootenai,Idaho,Coeur d'Alene,83815,47.7090445,-116.7899446,1.95,34.6,12.9,64.9,1689,5.0,24.0,26.8,9.1,18.7,8.4,1.9,1.3,0.0,31711,1649,52.6,1487,47.4,17.4,16.3,11.1,10.2,2.2,1.4,6.5,6.8,8.0
138,DeKalb,Indiana,Auburn,46706,41.3662184,-85.0771771,2.36,50.0,10.0,67.0,3141,8.3,11.8,22.9,14.9,18.7,15.4,6.2,0.8,1.4,40938,2907,48.4,3101,51.6,8.1,16.8,10.7,11.6,6.7,4.8,9.4,3.1,1.8
139,Cook,Illinois,Calumet City,60409,41.62334606,-87.53970781,3.21,36.6,13.7,68.0,1796,15.1,6.3,7.2,11.8,24.2,12.4,18.1,2.7,0.2,56043,1702,47.7,1865,52.3,7.5,14.2,12.9,16.0,2.1,9.4,4.1,2.2,0.7
140,Cook,Illinois,Calumet City,60409,41.6231077,-87.5399235,3.21,36.6,13.7,68.0,1796,15.1,6.3,7.2,11.8,24.2,12.4,18.1,2.7,0.2,56043,1702,47.7,1865,52.3,7.5,14.2,12.9,16.0,2.1,9.4,4.1,2.2,0.7
141,Cook,Illinois,Chicago,60643,41.707413,-87.65603,3.57,31.0,16.7,50.4,1465,16.1,4.5,7.6,8.6,27.9,8.7,13.0,4.7,3.4,58576,1585,40.6,2320,59.4,7.6,10.0,10.3,10.7,4.0,7.5,9.8,3.3,4.1
142,Macon,Illinois,Decatur,62523,39.8441959,-88.9521595,2.7,33.4,2.8,42.6,682,35.6,20.7,6.8,16.7,18.5,4.2,0.0,0.0,2.3,23810,1141,49.9,1144,50.1,6.3,22.2,17.5,9.2,1.5,5.3,0.7,1.5,0.2
143,Gibson,Tennessee,Humboldt,38343,35.8289977,-88.9148162,2.22,37.0,7.1,39.3,1011,6.0,29.4,6.7,15.0,18.4,8.5,5.0,1.5,2.6,36563,1432,50.1,1429,49.9,1.2,25.8,9.4,6.6,4.4,7.6,10.8,15.0,6.7
144,Cuyahoga,Ohio,North Olmsted,44070,41.41918198681658,-81.91629989512367,2.76,25.3,25.5,60.0,1391,2.7,1.4,2.0,7.8,12.9,17.0,23.9,10.8,13.6,95083,1526,52.2,1395,47.8,4.9,7.4,10.5,17.3,5.8,4.5,9.6,6.3,4.2
145,El Paso,Colorado,Colorado Springs,80918,38.8902961,-104.7612963,1.96,27.6,10.8,76.3,2023,1.4,6.1,8.5,11.5,21.7,18.0,22.7,1.6,0.0,64706,1361,45.0,1661,55.0,17.1,25.4,9.8,12.7,5.4,2.6,5.6,5.9,3.2
146,Howard,Indiana,Kokomo,46901,40.49396755,-86.13378789,1.94,41.5,12.8,64.0,2039,5.3,15.9,5.0,10.7,20.8,7.2,10.5,17.5,0.7,52405,1854,49.5,1890,50.5,4.6,16.5,12.2,10.6,8.2,12.5,10.5,6.5,1.1
147,San Bernardino,California,San Bernardino,92410,34.122419,-117.290483,3.36,33.6,4.8,54.2,1940,2.0,10.4,24.1,19.9,15.5,4.8,4.8,0.0,0.0,32465,2527,42.5,3412,57.5,6.8,14.8,12.6,7.1,3.4,1.3,5.7,0.8,0.0
148,Saginaw,Michigan,Saginaw,48603,43.45978941496125,-83.9763586268205,2.25,26.7,20.3,66.5,3027,13.6,5.9,8.7,26.8,24.9,8.0,9.0,3.1,3.2,48250,2743,51.5,2582,48.5,14.2,16.4,9.1,11.7,6.9,6.6,10.5,3.1,1.9
149,Jackson,Oregon,Medford,97504,42.34102991247397,-122.87045506469666,2.33,28.3,18.1,59.2,2669,9.0,13.4,17.6,13.4,14.3,5.5,11.2,2.4,3.2,35048,3051,52.1,2801,47.9,2.6,20.5,17.3,8.0,6.2,5.0,9.6,2.8,4.5
150,San Luis Obispo,California,San Luis Obispo,93405,35.2483109,-120.6835476,2.4,15.8,23.4,67.3,3931,7.9,8.0,7.4,9.7,16.2,10.7,16.6,14.8,12.8,83542,3405,50.6,3319,49.4,17.5,17.9,12.1,8.3,5.0,6.2,9.2,5.2,3.2
151,Seminole,Florida,Lake Mary,32746,28.7709642,-81.347814,2.57,17.0,32.5,64.9,4614,2.7,6.6,2.7,6.3,14.4,11.6,21.6,14.6,18.1,103899,3727,43.1,4916,56.9,2.8,12.0,14.4,15.4,5.7,7.9,12.6,4.0,3.6
152,Kanawha,West Virginia,Charleston,25304,38.2925354,-81.5667551,2.15,28.0,19.4,65.2,984,5.0,3.7,10.7,24.8,22.3,18.1,9.6,2.1,1.0,56711,776,44.9,954,55.1,3.0,16.0,16.2,12.9,5.8,9.5,13.9,6.9,1.5
153,Barnstable,Massachusetts,Dennis,02639,41.6668937,-70.1328357,1.89,25.6,24.5,59.8,1408,8.7,12.0,13.1,20.2,14.9,8.0,11.0,4.8,3.9,45465,1411,51.4,1336,48.6,4.7,9.7,7.4,15.0,12.9,8.8,15.8,7.1,3.0
154,Grant,Indiana,Marion,46953,40.52904344668765,-85.67323935198769,2.26,28.2,14.2,60.3,3874,6.7,10.1,4.1,7.9,18.0,7.1,14.3,5.5,2.0,46182,2657,36.7,4584,63.3,35.5,6.9,6.3,5.6,3.4,5.3,5.5,3.4,3.8
155,Maricopa,Arizona,Gilbert,85298,33.219622551390444,-111.75331103835167,3.15,27.7,24.1,72.4,2136,2.4,2.1,2.7,1.3,3.3,10.5,42.2,18.3,19.6,135995,1749,43.8,2241,56.2,6.0,5.1,15.4,18.4,3.4,2.6,9.8,6.3,0.9
156,Riverside,California,Blythe,92225,33.611231,-114.5847251,2.81,33.0,8.4,53.0,948,8.6,17.6,8.1,2.6,22.4,6.6,20.3,8.0,0.9,54299,1282,50.1,1275,49.9,3.6,17.2,6.4,8.7,7.2,8.5,8.3,8.2,0.1
157,Bradley,Tennessee,Cleveland,37312,35.2068658,-84.8501694,2.48,19.1,20.9,56.0,2291,4.8,6.8,14.4,13.9,15.2,6.9,23.6,1.7,5.9,52396,2466,46.9,2795,53.1,2.6,9.9,16.3,8.5,4.6,3.1,15.8,6.0,6.1
158,Norfolk,Massachusetts,Braintree,02184,42.21386783596271,-70.99741165577619,2.39,22.1,25.7,69.7,2588,4.3,1.1,5.0,14.0,16.6,13.2,20.7,5.9,16.6,86588,2238,49.7,2268,50.3,4.7,15.6,12.9,11.4,8.8,6.8,9.6,5.5,2.0
159,Greene,Arkansas,Paragould,72450,36.0610664,-90.5225702,2.41,40.0,10.9,54.1,1934,5.8,3.6,15.0,13.4,17.3,12.2,14.6,1.5,0.5,48570,2137,48.4,2277,51.6,6.8,14.9,15.4,11.5,6.4,4.0,9.7,4.1,2.8
160,Hancock,Indiana,Greenfield,46140,39.8075506,-85.7690275,2.32,47.0,15.6,63.3,2915,5.4,6.0,13.6,13.1,28.7,12.2,12.8,4.1,6.4,61859,2465,46.1,2884,53.9,7.9,15.8,15.9,12.8,5.1,4.9,12.4,5.1,2.8
161,Do√±a Ana,New Mexico,Las Cruces,88001,32.2985983,-106.7723508,2.25,38.2,6.0,58.5,1274,15.5,13.1,18.1,11.7,14.3,2.2,1.5,4.1,0.5,26875,1565,58.2,1126,41.8,9.5,16.4,10.0,9.3,9.4,5.4,11.2,3.9,2.3
162,Pierce,Washington,University Place,98466,47.24265969711191,-122.53652821799868,2.31,21.4,20.9,65.1,2852,4.6,3.6,15.3,12.5,19.7,10.7,15.1,3.4,11.8,61978,2455,43.9,3140,56.1,8.5,17.6,7.7,14.1,6.7,3.1,6.6,6.2,3.9
163,Harris,Texas,Spring,77388,30.071055393720577,-95.48557778818585,3.1,28.7,20.2,69.8,2995,0.0,5.6,6.3,9.1,19.9,12.2,27.9,9.8,5.3,88536,2817,47.7,3092,52.3,2.4,14.2,12.5,15.6,9.2,3.6,8.7,1.5,0.0
164,Columbia,Wisconsin,Wisconsin Dells,53965,43.62751052834954,-89.7657150846964,2.27,30.1,15.0,68.9,2620,5.8,8.0,5.3,10.2,24.6,18.5,13.7,4.4,5.3,68036,2239,48.2,2408,51.8,3.4,9.4,11.6,15.7,8.8,9.9,12.1,5.4,2.2
165,Nassau,New York,Hicksville,11801,40.7789333,-73.5307268,3.54,25.7,26.0,63.1,3702,2.8,5.1,3.4,4.6,12.5,10.4,29.5,12.7,18.3,123047,3500,48.8,3668,51.2,8.0,10.5,10.9,13.1,10.1,6.4,7.7,3.9,2.9
166,East Baton Rouge Parish,Louisiana,Baton Rouge,70815,30.4590282,-91.0479153,2.75,25.9,20.8,71.2,3905,5.7,8.4,5.6,11.9,11.0,18.8,19.6,4.6,15.6,87207,3506,48.1,3788,51.9,4.3,9.7,16.0,15.3,6.2,4.1,9.9,3.9,1.3
167,Washington,Utah,Hurricane,84737,37.17646239520615,-113.29747591479733,3.18,22.5,15.5,52.4,1688,1.7,7.6,9.5,11.9,18.0,10.0,21.8,8.5,8.5,71822,2399,54.7,1988,45.3,5.0,11.5,7.8,9.2,5.0,8.1,14.7,4.3,3.2
168,Gwinnett,Georgia,Buford,30518,34.11807196358014,-84.00966747320405,3.14,23.5,11.8,59.3,1127,3.9,12.5,12.5,19.1,13.4,17.1,17.4,0.0,0.0,46019,1118,44.1,1417,55.9,11.6,8.1,19.7,11.4,1.9,5.5,6.4,2.8,1.4
169,Hendricks,Indiana,Avon,46123,39.7630801,-86.3546657,2.82,30.3,23.6,75.6,4566,1.1,2.2,5.8,11.6,27.9,24.8,11.6,5.1,9.5,75455,3709,48.3,3967,51.7,5.0,12.3,13.1,19.2,4.7,5.5,5.4,2.0,0.8
170,Nueces,Texas,Corpus Christi,78411,27.7003475,-97.3795549,2.44,46.1,8.2,58.9,529,9.8,2.0,15.3,11.6,24.1,5.5,9.0,3.7,0.0,40583,652,58.6,461,41.4,2.5,6.8,8.4,25.8,11.9,3.1,10.0,1.4,0.6
171,Maricopa,Arizona,Surprise,85374,33.631243658965914,-112.34118546458893,2.53,34.1,5.0,58.3,2865,10.1,14.7,13.7,8.5,19.1,9.0,7.4,2.3,1.1,32643,2701,43.5,3512,56.5,6.2,12.3,8.8,14.2,4.4,8.2,8.6,7.2,3.1
172,Bradley,Tennessee,Cleveland,37312,35.21501878183569,-84.88017533556302,2.63,25.6,15.2,62.7,3143,2.5,8.2,4.9,16.0,18.4,11.1,17.3,10.0,4.1,61848,2857,48.2,3069,51.8,11.9,13.3,11.2,12.7,6.9,5.2,11.3,4.7,4.0
173,Salt Lake,Utah,Sandy,84093,40.5808631,-111.8335229,3.25,18.7,30.8,65.8,2749,3.0,2.6,4.5,4.6,15.2,13.4,20.5,15.9,21.6,107813,3002,55.0,2460,45.0,4.6,10.3,12.8,16.9,6.1,3.7,10.3,4.5,0.6
174,Carroll,Arkansas,Berryville,72616,36.3756666,-93.5841957,2.49,24.7,13.3,67.1,1899,6.1,11.3,14.8,9.2,29.5,5.7,8.7,6.5,8.9,58308,1809,49.9,1814,50.1,4.8,13.8,7.6,10.1,7.6,10.0,10.3,4.1,3.8
175,Hillsborough,Florida,Greater Carrollwood,33618,28.0478893,-82.5038477,2.43,22.0,34.4,56.2,2619,3.6,13.9,6.1,7.3,13.1,6.4,12.8,11.1,24.5,98036,2665,45.5,3198,54.5,4.6,8.9,9.1,16.4,5.9,6.0,8.1,10.8,5.2
176,Panola,Texas,Carthage,75633,32.15974726633009,-94.37158059990097,2.87,33.6,11.1,61.7,1744,5.1,20.2,9.9,6.5,18.8,14.5,13.7,5.3,4.3,55679,1757,47.1,1975,52.9,6.8,15.6,9.3,9.2,6.4,6.0,13.3,3.6,3.0
177,Maricopa,Arizona,Phoenix,85016,33.5095935,-112.0397658,1.94,13.3,33.1,71.0,2645,2.8,8.2,11.7,7.8,15.1,11.9,15.6,3.7,21.5,78906,2071,48.8,2171,51.2,8.4,20.3,12.5,14.3,9.3,4.0,11.5,1.2,2.1
178,Shelby,Texas,Center,75935,31.7994581,-94.1929003,3.63,14.4,7.3,71.3,1155,0.0,17.2,10.1,13.6,19.5,16.6,10.8,0.0,5.2,60773,1605,53.1,1419,46.9,4.0,17.7,6.6,8.3,0.6,3.3,2.0,4.4,0.0
179,Wayne,Indiana,Centerville,47330,39.82327931634625,-84.9973549829795,2.34,30.5,9.5,57.7,1377,4.4,13.3,9.3,13.9,15.8,20.7,8.3,3.2,2.2,50326,1473,47.9,1600,52.1,5.2,11.8,14.2,12.7,7.1,4.0,10.1,5.3,2.6
180,Manatee,Florida,Longboat Key,34228,27.410528290966322,-82.6570306359437,1.76,7.3,35.6,24.0,630,1.1,4.2,7.5,5.4,20.0,10.6,20.1,10.5,17.1,94583,1266,46.7,1446,53.3,1.5,0.9,5.4,8.3,9.7,20.5,24.3,20.9,7.0
181,Webb,Texas,Laredo,78046,27.4921808,-99.4552251,4.02,35.1,11.8,64.6,2119,10.1,7.8,1.8,19.1,18.2,9.6,22.2,8.2,6.9,66767,2068,47.0,2335,53.0,6.5,14.9,12.3,12.0,6.1,5.8,5.0,1.8,2.4
182,Los Angeles,California,El Segundo,90245,33.9161705,-118.3900804,0.0,0.0,0.0,0.0,0,0.0,0.0,0.0,0.0,0.0,0.0,0.0,0.0,0.0,0,0,0.0,0,0.0,0.0,0.0,0.0,0.0,0.0,0.0,0.0,0.0,0.0
183,Iredell,North Carolina,Mooresville,28117,35.5910249,-80.8720031,2.26,14.8,31.2,70.1,2437,2.3,7.0,7.2,17.2,24.1,7.3,23.3,6.0,4.7,59529,2155,50.5,2112,49.5,10.1,9.2,13.2,15.2,3.2,8.0,12.8,3.6,1.9
184,Carver,Minnesota,Chaska,55318,44.790731,-93.6017185,2.35,28.4,19.4,73.5,3050,1.1,10.7,11.9,8.6,23.3,10.0,15.7,10.7,1.5,61787,2621,48.9,2739,51.1,6.6,13.3,13.3,8.8,8.0,4.2,7.8,2.0,7.0
185,Sonoma,California,Petaluma,94952,38.2443916,-122.6441261,2.54,15.2,28.1,74.1,3033,3.4,3.9,7.0,8.2,18.8,15.4,26.9,9.1,6.3,95278,2523,49.3,2593,50.7,4.8,16.0,15.0,11.6,4.2,5.1,12.4,3.9,1.6
186,Chesterfield,Virginia,Chester,23831,37.3555487,-77.4492666,2.18,37.4,14.0,49.2,887,4.8,19.5,13.6,7.2,14.8,10.1,7.6,7.6,0.0,32298,1046,43.6,1353,56.4,4.8,14.8,9.6,14.5,5.8,4.3,10.0,6.4,1.5
187,,California,Los Angeles,90065,34.1033046,-118.2372437,3.48,19.7,21.3,69.9,1619,13.4,7.3,6.4,11.0,20.2,14.2,13.2,8.6,10.5,68472,1444,51.7,1351,48.3,11.4,19.0,14.7,16.4,5.4,3.0,2.8,1.5,1.9
188,Carroll,New Hampshire,Conway,03860,44.021308972134676,-71.11615958630385,2.26,28.0,15.4,79.0,2105,15.2,12.6,6.6,15.1,5.7,20.0,18.3,4.7,0.6,0,1536,49.4,1572,50.6,4.6,16.2,17.4,9.6,8.0,3.7,17.6,5.3,1.4
189,Harris,Texas,Deer Park,77536,29.663901945121864,-95.11544938267946,3.06,29.8,12.2,69.1,4025,4.0,1.8,2.6,14.3,16.4,12.6,23.1,8.4,15.8,91858,3953,54.8,3255,45.2,10.6,8.0,15.5,12.2,7.2,5.9,10.6,3.0,1.2
190,Guadalupe,Texas,Cibolo,78108,29.5715951,-98.2376206,2.58,35.1,11.9,43.6,684,1.3,13.0,14.2,2.1,0.9,15.0,16.9,16.4,9.4,84583,1003,52.0,925,48.0,8.2,5.4,17.5,19.7,5.3,6.1,14.0,0.9,0.9
191,Macomb,Michigan,Center Line,48015,42.47813829708413,-83.02733433978196,2.48,30.6,9.6,70.7,1571,15.2,8.4,17.5,10.1,13.0,15.1,9.2,2.8,1.7,39355,1428,49.4,1462,50.6,2.0,11.9,11.6,15.8,6.8,8.6,11.6,3.0,0.0
192,Cobb,Georgia,Mableton,30126,33.80117125237131,-84.56773428792232,2.91,29.2,21.8,65.1,2357,6.7,3.5,17.4,12.6,19.8,11.7,17.1,4.3,3.3,58171,2210,46.8,2512,53.2,6.1,13.2,13.4,11.1,9.3,5.7,7.8,3.3,1.7
193,Miami-Dade,Florida,Homestead,33030,25.45497413168271,-80.49344658598143,3.04,34.4,6.1,56.0,1333,0.0,10.5,3.8,10.5,13.2,11.8,10.4,0.0,12.5,43962,1666,50.8,1613,49.2,4.1,25.2,4.8,8.4,2.0,2.3,14.8,6.3,0.5
194,Tarrant,Texas,Arlington,76017,32.6747688,-97.1309742,3.26,16.7,16.6,80.0,4100,6.7,5.9,5.9,14.1,21.9,22.3,21.2,4.8,2.1,75490,3613,52.9,3218,47.1,7.6,14.3,16.1,11.3,8.7,3.8,5.1,0.9,0.2
195,Bexar,Texas,San Antonio,78211,29.358524000000003,-98.5498884,3.1,26.7,3.8,56.3,1305,10.5,10.8,16.1,17.9,21.6,9.1,2.2,2.7,1.8,47169,1318,47.1,1479,52.9,7.4,13.1,7.9,13.1,8.4,6.3,17.1,1.6,1.0
196,Marion,Oregon,Salem,97302,44.9191406,-123.0311135,2.2,32.4,17.8,64.5,1973,5.5,8.8,5.1,13.7,15.2,19.9,13.7,5.2,4.9,61548,1734,45.9,2041,54.1,3.7,15.3,12.7,9.0,5.6,11.0,10.3,5.4,3.6
197,Gwinnett,Georgia,Dacula,30019,34.00464075187207,-83.91244930490818,3.47,34.5,25.7,73.9,2966,6.6,6.6,0.0,3.4,15.4,18.1,31.8,5.2,8.3,93137,2830,51.1,2704,48.9,7.9,10.2,15.2,13.8,12.6,7.7,2.6,0.0,0.3
198,Warren,New Jersey,Belvidere,07823,40.83037219408095,-75.07609740394574,2.17,36.9,17.4,69.8,1508,8.6,3.1,6.7,4.9,14.8,23.2,20.5,10.2,5.6,88791,1337,53.0,1188,47.0,3.0,13.4,7.2,18.0,7.5,18.3,8.4,3.9,0.7
199,Orleans Parish,Louisiana,New Orleans,70127,30.02815986,-89.99368401,2.68,23.0,9.9,70.3,898,7.2,23.8,6.2,1.7,10.5,6.2,7.1,5.1,0.0,20853,713,35.9,1275,64.1,4.8,24.5,14.0,9.6,4.6,0.5,2.9,0.7,0.3
200,,Texas,Crowley,76036,32.577740359131674,-97.35504261517279,2.94,40.1,17.0,63.9,1232,3.6,5.4,2.9,13.5,14.9,29.7,17.5,8.5,0.7,79858,1292,50.7,1256,49.3,3.5,18.2,15.0,7.5,7.5,5.8,6.3,3.1,1.8
201,Dunklin,Missouri,Malden,63863,36.5271195,-89.9702088,2.59,42.4,5.4,57.4,1636,4.1,11.9,11.3,17.4,21.9,7.4,5.4,5.2,0.7,41083,1903,48.1,2052,51.9,4.1,10.3,13.7,13.4,8.1,5.2,8.2,4.2,0.5
202,Chattooga,Georgia,Summerville,30747,34.4771992,-85.3492741,2.18,35.9,9.4,56.6,908,1.2,0.0,26.4,11.1,17.6,12.4,8.9,3.8,2.3,38668,1049,53.6,907,46.4,6.9,10.5,5.9,18.0,4.6,8.7,17.7,5.8,1.7
203,Oakland,Michigan,Southfield,48034,42.50098384,-83.30279932,2.34,22.6,21.0,65.0,3074,16.2,6.2,9.0,13.8,33.9,9.4,14.1,0.7,1.8,55636,2762,50.8,2673,49.2,8.6,21.1,14.8,12.6,4.0,4.0,12.9,1.8,1.6
204,Wayne,Michigan,Dearborn Heights,48127,42.3275382,-83.2538219,2.86,20.6,20.8,53.7,2238,8.7,10.6,18.6,10.9,19.8,10.4,7.0,5.4,6.2,43870,2738,50.7,2658,49.3,8.4,12.7,13.6,9.8,4.7,9.7,5.0,3.4,1.2
205,Wise,Texas,Decatur,76234,33.2227065905043,-97.59502986794281,2.35,25.8,19.3,65.0,1275,2.4,7.4,0.0,16.4,26.8,1.8,23.6,11.7,3.7,59470,926,37.3,1555,62.7,4.2,14.0,16.2,15.6,3.5,2.2,6.6,6.7,4.3
206,Tunica,Mississippi,Tunica Resorts,38664,34.82964061972193,-90.2807468028244,2.57,45.4,8.6,78.8,1951,10.1,10.8,12.3,16.2,33.1,10.4,2.5,0.0,0.0,44507,1936,57.4,1435,42.6,2.2,32.4,13.2,8.2,3.7,5.5,3.2,2.4,0.0
207,Lincoln,South Dakota,Harrisburg,57032,43.4324269,-96.7915374,2.66,25.4,26.0,73.8,1803,1.1,4.2,5.3,3.2,11.8,12.2,25.6,12.6,21.3,115089,1629,51.1,1560,48.9,2.2,5.6,12.7,15.2,7.9,10.9,12.4,1.8,1.5
208,Miami-Dade,Florida,Miami,33137,25.8131581,-80.1939141,2.57,23.1,28.6,70.4,1801,4.1,11.0,7.1,6.0,26.4,19.3,10.8,3.2,2.6,65162,1678,54.5,1403,45.5,5.1,18.2,17.8,12.9,4.1,5.7,5.4,3.4,7.5
209,Shawnee,Kansas,Topeka,66604,39.045749410414366,-95.7594381694196,2.04,20.6,14.2,53.7,1119,0.0,8.3,11.9,24.6,18.4,7.9,13.2,1.8,3.1,45017,921,33.6,1819,66.4,3.3,13.8,7.3,12.5,3.1,7.6,8.2,10.7,2.2
210,Harrison,West Virginia,Clarksburg,26301,39.268291515860376,-80.35466440955393,2.5,34.5,10.7,65.8,1772,4.6,8.9,5.9,19.4,16.6,12.3,20.8,4.4,1.7,58750,1607,47.4,1786,52.6,9.8,8.9,11.6,17.3,4.1,4.1,8.7,5.9,4.0
211,Calcasieu Parish,Louisiana,Westlake,70669,30.2610519,-93.2587125,2.55,37.1,15.6,56.3,1952,0.3,6.7,12.2,17.4,27.3,12.6,7.1,5.1,1.5,58413,2535,54.2,2144,45.8,2.1,20.1,14.0,4.8,4.6,2.5,15.3,6.0,1.7
212,San Bernardino,California,Barstow,92311,34.89561466810843,-117.00646600823193,3.1,20.9,10.3,37.5,1008,3.4,10.4,19.9,15.8,10.8,10.8,11.8,0.0,4.3,36118,1616,42.6,2177,57.4,3.6,9.4,21.3,5.1,9.8,2.2,9.1,5.2,2.2
213,Klamath,Oregon,Klamath Falls,97603,42.2088529,-121.7506794,2.52,45.1,4.3,56.3,1123,11.0,6.8,15.6,14.1,19.0,16.6,5.7,2.7,0.0,39867,1237,48.0,1342,52.0,5.6,19.8,8.4,4.8,12.6,7.5,10.6,6.4,1.7
214,Denton,Texas,Frisco,75033,33.1787895,-96.867204,3.36,9.9,38.0,76.1,3278,6.7,0.0,1.2,0.8,6.3,3.9,28.0,28.9,29.8,171602,3373,53.7,2904,46.3,2.1,4.8,20.3,21.8,3.6,4.0,4.2,0.7,0.7
215,Palm Beach,Florida,Palm Beach Gardens,33418,26.88067022,-80.10450814,2.32,13.3,34.0,63.0,3547,2.2,6.0,3.6,7.6,15.1,14.7,16.8,10.8,20.6,94921,3338,48.3,3568,51.7,3.4,10.6,10.3,14.7,12.1,6.7,9.9,7.9,0.5
216,Dougherty,Georgia,Albany,31705,31.576937605810322,-84.14495445191879,2.26,30.6,6.9,45.1,819,26.7,13.0,8.8,6.9,8.7,4.4,5.6,0.0,0.0,12759,1198,53.8,1030,46.2,5.2,14.5,7.8,17.3,2.4,6.4,20.5,2.5,0.4
217,Marathon,Wisconsin,Abbotsford,54405,44.9449498,-90.3061993,2.78,47.3,7.4,65.6,1765,2.5,5.6,7.6,15.6,20.7,21.0,13.2,3.6,2.8,65580,1991,55.6,1590,44.4,6.9,9.5,12.7,10.6,7.1,4.9,10.8,3.7,2.8
218,Alameda,California,Hayward,94545,37.6142046,-122.0863694,3.55,29.5,27.9,65.9,1441,5.2,2.3,2.6,3.6,23.5,20.7,24.2,13.2,4.8,87772,1389,52.3,1265,47.7,6.2,12.9,10.1,13.0,7.9,11.4,10.6,4.8,3.0
219,Pasco,Florida,Odessa,33556,28.194166287361227,-82.5923589851815,2.4,16.1,30.1,44.5,2960,3.1,4.9,6.0,10.1,19.1,10.0,19.7,16.9,8.6,85568,3977,47.4,4419,52.6,1.6,14.6,10.2,9.9,3.1,3.2,14.9,17.3,2.4
220,Sequatchie,Tennessee,Dunlap,37327,35.34434,-85.410038,2.8,41.8,11.4,57.9,2168,4.2,12.2,18.3,9.4,24.3,8.7,12.2,5.3,0.6,51328,2332,51.9,2165,48.1,7.2,13.3,12.7,17.3,2.3,6.5,12.0,3.4,1.2
221,Pinellas,Florida,Largo,33770,27.929590195046547,-82.78841153514075,2.43,33.4,12.5,57.8,1611,11.5,8.7,14.4,16.6,12.5,10.3,4.6,3.1,2.7,34769,1618,47.3,1800,52.7,2.7,13.5,12.2,10.0,10.8,5.1,14.1,4.1,2.5
222,Gwinnett,Georgia,Lawrenceville,30045,33.90309840394933,-84.00488937501251,3.29,25.4,19.8,69.6,3039,7.2,13.1,3.0,14.5,9.6,10.9,31.0,1.3,5.2,61813,2904,51.5,2734,48.5,7.3,10.9,12.2,18.3,5.6,6.2,4.3,4.0,1.6
223,Arapahoe,Colorado,Centennial,80122,39.5682553,-104.9411669,2.88,5.6,44.3,58.4,1135,3.1,4.1,2.5,4.2,12.1,5.6,13.8,9.9,44.8,166875,1267,48.4,1350,51.6,2.9,3.1,10.3,16.3,5.4,12.0,11.9,6.6,0.5
224,Waukesha,Wisconsin,Menomonee Falls,53051,43.16624366312072,-88.09893299056833,2.21,31.2,27.0,73.8,1702,4.2,4.8,15.3,10.6,20.4,15.6,20.5,5.3,2.9,62083,1332,46.0,1566,54.0,3.2,18.9,13.0,8.0,6.5,6.7,9.7,4.2,4.1
225,Lake,Indiana,Gary,46407,41.57331157330799,-87.35447176786407,2.6,36.2,7.7,28.7,284,22.5,17.9,12.1,4.4,2.1,5.4,4.2,0.0,0.0,12500,630,41.9,875,58.1,3.1,15.2,7.7,8.9,4.0,4.2,13.6,3.1,1.3
226,,Tennessee,Memphis,38107,35.16111699477073,-90.00106655604353,2.13,15.6,32.1,65.0,2304,5.0,3.6,9.2,10.1,35.8,15.7,12.2,1.6,4.2,61028,1786,43.5,2320,56.5,2.6,21.3,16.1,9.4,3.2,8.0,10.1,7.1,3.6
227,Monroe,New York,Rochester,14616,43.223269,-77.6424262,2.41,34.4,16.6,66.1,2264,5.2,11.2,8.9,17.5,27.5,13.0,12.7,2.7,2.9,59564,1930,47.5,2131,52.5,6.8,10.9,14.1,15.1,4.1,3.9,9.8,4.3,5.9
228,Caddo Parish,Louisiana,Shreveport,71105,32.4442296,-93.7269284,2.3,13.4,26.1,48.6,1865,3.4,3.0,12.8,12.1,8.0,24.5,14.2,7.7,3.0,74095,1592,36.3,2795,63.7,6.0,15.9,10.4,11.0,8.8,5.6,10.2,8.8,11.1
229,Maricopa,,Tempe,85283,33.3504002,-111.9288925,2.46,16.8,22.7,72.8,1605,4.6,3.3,6.3,21.0,21.0,15.2,18.7,6.1,2.0,65500,1321,52.1,1213,47.9,8.6,14.2,16.0,19.9,7.9,4.4,7.6,2.2,1.6
230,Cameron,Texas,Harlingen,78552,26.18735176738382,-97.7635650678096,3.18,39.2,12.4,50.8,2147,7.5,11.2,10.7,8.0,23.4,11.4,4.8,7.0,9.5,57213,2676,47.6,2943,52.4,2.3,7.5,16.9,9.0,7.1,3.2,6.4,12.0,1.6
231,Harris,Texas,Houston,77095,29.8791264,-95.6356595,3.0,32.8,14.5,78.2,4233,7.8,9.0,14.8,9.1,8.7,10.2,29.5,14.1,3.9,98036,3649,49.1,3790,50.9,7.1,13.6,16.8,13.6,5.6,3.8,7.6,0.7,0.4
232,Jefferson,Texas,Beaumont,77707,30.068021290751137,-94.1484475321086,3.01,29.6,11.0,59.8,2705,0.0,14.0,5.4,22.1,25.7,10.2,8.6,0.9,2.4,44799,3103,48.6,3288,51.4,3.9,14.4,9.0,8.9,5.4,8.6,7.7,3.1,4.1
233,Tarrant,Texas,Colleyville,76034,32.8802635,-97.1555895,2.7,6.4,40.7,61.6,3611,4.8,0.0,5.0,1.3,11.1,9.0,13.9,21.9,35.6,166987,3788,50.8,3666,49.2,1.8,13.9,10.7,11.0,6.1,10.5,15.7,5.5,1.0
234,Collin,Texas,Plano,75023,33.055465,-96.7095042,2.85,18.0,27.6,69.5,2190,7.3,5.3,5.1,6.6,16.4,19.1,28.5,6.8,4.0,84745,1838,51.2,1749,48.8,8.2,16.4,13.9,15.5,7.6,7.4,7.0,4.3,4.7
235,Macomb,Michigan,New Haven,48048,42.72208290335923,-82.79515535522837,2.95,19.1,20.6,67.2,2693,5.2,8.2,3.8,12.1,20.1,11.2,18.7,4.2,2.6,59107,3033,50.3,3002,49.7,5.0,14.5,14.4,15.7,5.8,4.9,2.4,0.3,1.1
236,Jackson,Michigan,Jackson,49202,42.2757454,-84.4286877,2.17,43.0,22.1,66.7,1547,5.1,4.2,15.8,10.5,26.0,24.4,6.9,5.5,2.5,64868,1515,53.5,1315,46.5,5.4,9.7,15.1,8.7,10.2,9.2,11.8,3.5,3.6
237,Kandiyohi,Minnesota,Willmar,56201,45.10603237,-95.03918705,2.15,22.0,20.3,68.5,2781,2.3,10.2,9.8,12.5,17.5,17.2,11.4,5.1,0.0,52000,2181,43.8,2804,56.2,8.4,11.4,13.1,8.0,5.2,9.5,10.3,4.2,6.3
238,Scotts Bluff,Nebraska,Scottsbluff,69361,41.872449,-103.6506859,2.29,20.4,22.5,54.7,1470,3.5,10.7,7.3,17.1,15.2,7.1,20.9,6.8,7.0,62781,1532,45.6,1829,54.4,2.9,6.8,7.5,13.6,6.5,7.6,13.5,5.6,8.3
239,Monroe,New York,Rochester,14623,43.08321129297977,-77.62496813354133,2.18,23.8,28.4,69.3,2522,7.7,16.5,15.1,6.6,24.4,12.0,11.5,2.4,0.6,51042,2070,48.7,2183,51.3,12.3,17.3,16.4,7.5,5.8,10.2,10.4,2.2,0.7
240,San Bernardino,California,Colton,92324,34.0903235,-117.3329367,3.29,33.2,12.6,54.8,1595,1.9,13.0,8.8,5.7,22.2,19.2,9.5,2.3,6.1,60734,1837,49.0,1913,51.0,8.0,17.6,10.2,7.2,5.8,6.3,10.7,3.0,1.7
241,Duval,Florida,Jacksonville,32277,30.3650621,-81.5963972,2.93,40.5,13.4,68.0,3955,6.4,17.5,12.3,8.1,17.8,13.1,15.0,7.3,2.5,56204,3404,47.6,3744,52.4,4.1,13.6,16.7,11.5,7.0,10.1,9.3,1.7,1.2
242,Starr,Texas,Rio Grande City,78582,26.356541882324915,-98.77482007303398,3.44,32.1,5.0,60.7,1315,13.5,12.9,17.8,16.2,9.3,4.2,11.3,6.8,0.0,33946,1587,48.5,1684,51.5,6.5,11.9,11.3,9.1,8.0,4.6,5.0,1.6,0.7
243,Fayette,Georgia,Fayetteville,30214,33.4737205,-84.4409998,2.6,30.7,22.2,66.8,1981,4.6,1.5,6.3,11.4,31.5,18.0,20.0,2.4,2.1,66414,1945,50.0,1944,50.0,5.2,15.3,12.8,15.0,6.3,3.5,8.2,3.8,2.6
244,Maricopa,Arizona,Phoenix,85016,33.49480783754942,-112.02802631856231,2.18,19.0,16.7,81.5,3251,1.8,5.0,9.6,16.3,21.2,14.3,10.9,2.8,8.7,54177,2929,58.0,2123,42.0,3.9,25.6,17.2,8.0,5.6,6.2,7.8,2.0,0.4
245,Outagamie,Wisconsin,Kaukauna,54130,44.2634437,-88.2733655,2.46,33.4,15.6,72.9,2450,0.0,8.4,4.6,5.4,20.3,21.0,17.2,8.5,12.1,88787,2153,53.9,1841,46.1,6.0,14.4,12.4,14.1,12.8,5.9,8.1,2.3,4.6
246,Jefferson,Missouri,Festus,63028,38.21261322517954,-90.40218768138665,2.28,34.3,10.6,55.9,2335,3.6,6.4,5.6,13.6,26.0,11.1,13.3,5.7,5.3,61414,2352,44.1,2977,55.9,5.6,10.3,14.3,13.0,5.1,8.2,12.2,4.5,2.4
247,Rock Island,Illinois,Milan,61264,41.442820520862725,-90.57110843328581,1.68,36.0,8.7,63.1,1227,3.3,22.1,13.3,8.9,21.8,8.6,8.9,3.0,3.5,46464,1194,52.0,1100,48.0,6.1,12.9,10.9,10.9,6.7,10.0,15.5,9.7,1.3
248,Miami-Dade,Florida,Miami,33127,25.8201832,-80.2082861,3.4,46.3,7.1,50.9,2171,5.4,8.8,16.0,19.1,16.5,7.6,5.4,3.9,1.2,40144,2403,42.5,3254,57.5,5.3,13.9,12.7,10.0,8.5,6.3,8.9,3.9,1.5
249,Hamilton,Ohio,Springdale,45246,39.2918337,-84.4838581,2.44,28.8,12.4,59.5,2559,5.5,8.7,25.8,7.0,11.8,13.0,13.5,2.7,4.2,43558,2712,47.7,2974,52.3,4.5,12.1,9.1,8.8,5.1,6.0,7.1,7.2,9.0
250,Hunt,Texas,Greenville,75402,33.1212489,-96.0965163,2.59,46.8,10.7,60.7,2366,2.2,4.2,16.6,17.3,23.8,15.8,13.6,0.4,1.4,56705,2661,50.6,2597,49.4,5.6,12.6,16.1,12.6,3.4,7.0,8.7,5.6,0.3
251,Jackson,Oregon,Ashland,97520,42.1843033064128,-122.67222317527005,2.07,16.8,39.2,61.0,2170,1.2,14.1,17.7,11.1,11.7,6.0,19.2,7.8,3.8,49248,2146,48.4,2289,51.6,8.2,9.7,12.5,12.7,7.7,2.7,18.1,4.3,2.1
252,,Texas,Port Arthur,77642,29.91804786496086,-93.90829328039175,2.63,38.4,6.7,56.7,1609,8.8,15.2,4.6,13.5,11.8,8.8,9.7,3.1,0.0,26833,2016,50.1,2008,49.9,9.0,18.6,9.5,10.3,6.7,3.5,2.6,3.1,0.8
253,Shelby,Tennessee,Memphis,38125,35.03367422164098,-89.79540798004344,2.62,12.5,23.1,69.2,3293,2.6,0.7,16.0,10.8,18.4,13.8,17.2,12.5,2.9,72822,2918,48.3,3126,51.7,7.3,12.8,16.6,15.7,4.5,4.5,9.5,0.4,0.0
254,,Georgia,Stone Mountain,30083,33.80183271843304,-84.20670525871527,3.61,21.9,17.2,68.3,2077,13.9,3.6,8.5,12.1,28.5,11.7,12.7,6.7,2.3,61470,1606,42.3,2189,57.7,6.6,14.2,10.5,16.9,4.8,5.5,11.0,1.6,1.3
255,Marion,Alabama,Hamilton,35570,34.1220942,-87.9919322,2.19,43.3,8.7,36.2,1061,2.5,26.0,3.1,13.1,28.4,11.5,4.8,0.0,1.1,43095,1370,41.8,1905,58.2,6.1,9.7,6.1,21.3,7.5,4.7,14.2,10.6,2.9
256,San Joaquin,California,Stockton,95207,38.0191676,-121.3216924,2.9,30.0,15.6,63.5,2233,6.3,11.9,9.2,23.2,17.4,18.1,9.8,1.7,0.5,48064,2191,46.2,2547,53.8,9.8,21.0,8.6,8.3,5.0,4.8,8.0,3.4,2.9
257,Hanover,Virginia,Mechanicsville,23111,37.6004696,-77.3466717,2.53,33.1,17.3,66.2,2503,2.5,6.4,9.3,9.8,16.2,16.2,17.2,9.9,9.2,78152,2543,55.2,2064,44.8,6.2,11.6,12.5,10.0,9.5,6.7,13.7,7.6,1.1
258,Los Angeles,California,Los Angeles,90732,33.72310800256562,-118.31188649024456,2.64,23.1,17.1,64.0,953,5.2,4.7,0.5,2.2,16.4,13.1,18.1,18.7,21.1,111607,864,41.2,1232,58.8,4.0,11.3,13.1,11.5,10.0,5.2,12.1,5.0,2.9
259,Wayne,Michigan,Garden City,48135,42.3257731,-83.3404222,2.43,39.0,11.3,63.4,1924,9.0,10.3,12.1,10.0,24.9,10.7,22.2,3.4,2.9,59139,1563,43.2,2057,56.8,4.8,11.9,13.5,16.4,6.4,7.4,8.9,4.3,3.9
260,Fort Bend,Texas,Richmond,77407,29.6495051,-95.7086367,3.78,11.4,36.5,66.3,7440,6.4,3.3,1.1,10.1,14.8,6.9,22.7,23.3,17.8,127401,8057,51.9,7459,48.1,8.4,12.6,18.9,13.2,3.6,4.9,4.2,0.9,1.6
261,Harris,Texas,Houston,77006,29.741945,-95.3906422,1.56,7.7,30.4,86.4,1850,5.1,4.9,3.7,7.6,14.3,10.5,12.8,16.1,20.5,98977,1284,56.0,1009,44.0,5.1,41.3,14.6,14.7,2.8,4.2,8.3,0.8,1.5
262,McHenry,Illinois,Woodstock,60098,42.3131799,-88.4341398,2.4,25.7,14.7,62.9,1789,1.8,4.4,6.9,15.1,26.1,14.7,17.6,5.0,2.3,64493,1640,47.2,1836,52.8,7.0,10.7,15.4,10.7,3.7,7.6,9.6,5.4,4.9
263,Wake,North Carolina,Holly Springs,27540,35.6414324,-78.8395252,3.0,18.5,28.3,69.6,2791,6.7,2.4,3.1,10.1,13.3,12.3,29.0,13.9,11.6,103664,2550,48.5,2711,51.5,4.4,14.1,15.6,12.9,7.2,4.5,6.9,2.7,2.6
264,St. Lucie,Florida,Port St. Lucie,34986,27.3154827,-80.3885515,2.25,32.3,26.9,38.7,1283,12.4,2.4,9.6,21.4,21.5,9.7,8.9,7.1,6.0,51011,1781,45.8,2110,54.2,0.7,3.2,9.6,8.4,13.3,2.4,22.5,18.2,1.4
265,Harris,Texas,Houston,77095,29.903220236522948,-95.68526664809417,3.37,14.6,38.5,66.7,7606,5.3,2.9,1.3,4.2,6.7,15.6,25.0,18.9,24.0,128784,8629,53.0,7667,47.0,1.9,13.5,17.7,13.1,2.9,4.2,9.1,2.9,0.0
266,Cabarrus,North Carolina,Concord,28027,35.4083526371122,-80.66371085934482,2.57,21.7,26.5,66.0,2802,2.0,5.6,5.4,6.7,26.2,11.9,15.0,5.9,19.1,79598,2838,53.3,2489,46.7,3.5,17.2,11.5,10.3,5.9,6.9,13.4,7.2,0.8
267,Horry,South Carolina,Myrtle Beach,29572,33.75231267928315,-78.81243110911024,2.17,19.0,26.4,50.6,1532,2.9,6.9,7.9,7.1,17.5,14.2,12.2,7.8,16.3,75690,1514,46.0,1777,54.0,1.0,6.0,10.9,9.1,11.3,11.0,25.6,10.3,4.4
268,Cook,Illinois,Palos Heights,60463,41.67806374,-87.81319541,2.4,25.7,19.2,52.9,1813,4.1,10.9,1.8,8.3,10.6,10.6,29.7,10.3,16.4,113205,1875,46.6,2145,53.4,1.3,3.9,9.7,11.8,7.5,15.9,17.3,9.4,3.9
269,Deaf Smith,Texas,Hereford,79045,34.83371488976336,-102.40670585292212,2.98,32.1,10.7,68.2,2946,6.5,7.8,16.7,14.6,16.2,13.6,15.7,3.2,3.0,51062,3043,50.7,2955,49.3,7.7,13.0,10.1,10.8,4.3,5.7,10.2,2.6,1.0
270,Coconino,Arizona,Flagstaff,86001,35.187785,-111.6615418,1.71,22.1,13.7,45.7,6013,21.1,17.7,7.8,13.8,6.0,2.2,0.0,0.0,0.0,14057,4404,33.4,8789,66.6,30.9,1.6,0.6,0.1,0.2,0.1,0.1,0.0,0.0
271,Pasco,Florida,Holiday,34691,28.20759707,-82.74007224,2.42,31.8,14.7,57.6,1207,4.1,9.5,24.3,12.1,16.4,8.4,10.1,1.0,4.8,36510,1383,54.3,1166,45.7,7.4,9.7,15.8,16.4,10.8,5.5,9.2,3.1,0.8
272,Craighead,Arkansas,Jonesboro,72401,35.82067,-90.6624927,1.94,29.7,17.5,56.8,1669,6.9,29.7,3.6,6.9,18.5,8.6,5.7,0.0,5.7,22376,1159,33.5,2303,66.5,15.0,11.3,14.2,11.8,1.6,0.8,7.1,12.7,2.6
273,Pottawattamie,Iowa,Council Bluffs,51501,41.26147920635086,-95.86655066022766,2.55,43.0,6.3,62.0,1084,5.4,12.9,18.6,12.7,22.9,12.3,8.9,1.9,0.0,47885,849,40.0,1274,60.0,1.1,15.8,15.7,17.0,6.4,6.4,12.6,2.3,1.9
274,Broward,Florida,Deerfield Beach,33442,26.318013122791513,-80.14813201635091,2.19,24.6,24.4,60.5,2742,2.4,5.7,3.0,11.2,18.6,17.1,19.8,6.0,8.9,77361,2524,46.9,2854,53.1,5.7,16.9,9.1,14.3,3.4,4.5,9.5,12.5,6.3
275,Contra Costa,California,Richmond,94806,37.9842689,-122.319385,2.33,18.4,27.7,61.8,2846,7.0,4.7,5.3,15.0,21.8,20.3,15.9,7.8,3.8,73611,2448,44.8,3018,55.2,7.6,24.1,9.1,13.8,4.5,4.1,11.5,3.4,1.0
276,Pennington,South Dakota,Rapid City,57701,44.1079421,-103.2055794,2.4,35.0,14.4,70.1,4124,4.8,12.6,10.1,9.3,20.4,15.4,12.7,4.5,0.9,57926,3688,46.8,4191,53.2,4.9,18.0,9.6,9.2,7.1,8.1,10.5,3.5,2.3
277,Blue Earth,Minnesota,Mankato,56001,44.1662004,-93.9694694,2.44,19.1,25.7,65.2,2468,2.8,10.5,8.0,10.2,13.3,20.8,14.8,8.9,5.1,74107,2206,47.0,2489,53.0,9.9,11.9,12.7,12.8,3.7,6.1,8.7,6.9,1.8
278,Bergen,New Jersey,Lodi,07644,40.885344371884294,-74.06621037338269,2.88,25.1,20.2,60.8,3155,2.8,12.5,7.3,15.3,19.8,6.4,10.1,7.4,16.8,56250,2526,40.7,3686,59.3,9.9,12.0,10.7,16.3,6.9,5.9,6.7,4.1,4.4
279,Monroe,New York,Rochester,14621,43.1931369,-77.5995332,2.99,39.0,8.8,62.9,2279,16.3,13.4,22.0,15.5,21.0,4.1,10.6,2.9,2.3,37639,2427,50.9,2341,49.1,7.0,14.6,17.4,8.3,4.8,3.8,9.3,2.4,1.1
280,Orange,California,Lake Forest,92630,33.6158067,-117.7051803,3.14,21.3,18.6,57.6,3226,4.2,2.1,6.4,12.9,22.8,16.7,17.9,8.4,6.7,73333,3620,54.1,3074,45.9,5.8,14.4,7.9,14.9,6.5,8.4,7.2,8.0,5.0
281,Hamilton,Tennessee,Chattanooga,37421,34.9991833,-85.1338572,2.75,11.2,36.9,57.9,2870,5.0,2.2,4.0,6.7,11.8,27.7,26.7,8.1,8.5,98746,2722,43.7,3508,56.3,1.8,7.5,11.4,11.3,3.7,14.1,10.8,11.2,0.8
282,Hennepin,Minnesota,Minneapolis,55404,44.9556351,-93.27802179999999,1.8,14.0,26.4,90.3,2750,4.5,6.3,7.2,21.5,25.0,12.5,6.3,2.8,8.2,57150,2050,56.7,1568,43.3,15.0,29.4,20.1,9.6,4.3,1.0,3.3,0.0,0.0
283,Duval,Florida,Jacksonville,32246,30.261434299999998,-81.5195677,2.37,18.1,23.5,68.0,3423,5.7,1.1,18.4,12.0,18.9,23.4,12.0,8.1,0.1,68254,3206,53.6,2775,46.4,3.4,27.5,21.2,12.8,4.4,4.2,7.5,0.0,2.1
284,Houston,Georgia,Warner Robins,31093,32.6218867,-83.6904132,2.72,21.0,18.7,59.4,2203,2.5,7.1,11.3,10.5,25.5,16.5,14.1,5.1,4.5,67064,2372,48.8,2489,51.2,2.8,8.4,15.5,15.0,5.7,3.3,5.5,4.7,1.9
285,,Illinois,Joliet,60431,41.5452328,-88.1996502,3.06,31.1,15.3,66.6,1697,0.0,7.5,1.1,1.2,15.7,10.4,23.3,18.3,13.5,116667,1838,55.6,1470,44.4,5.7,7.5,14.4,16.3,6.4,3.8,8.2,2.6,5.3
286,Broward,Florida,Fort Lauderdale,33316,26.10019078541486,-80.13571526839196,1.93,18.3,27.6,70.6,890,2.0,12.9,4.6,12.2,9.8,3.3,24.3,11.6,13.3,96875,787,60.8,508,39.2,3.7,29.6,13.1,20.0,3.6,3.2,10.0,3.9,5.9
287,Clayton,Georgia,Jonesboro,30236,33.5379026,-84.3507219,2.62,40.5,5.0,30.9,889,3.4,14.5,9.0,24.5,13.1,5.6,12.3,2.5,7.8,43006,2125,65.3,1128,34.7,9.2,26.4,11.9,16.3,7.0,4.9,6.3,1.5,0.7
288,Tarrant,Texas,Keller,76248,32.9346017,-97.2172508,2.42,21.3,27.5,59.2,2359,2.5,8.2,5.0,7.3,20.1,15.2,15.0,6.0,11.0,71546,2466,50.1,2458,49.9,4.8,11.5,9.4,17.0,4.9,7.5,10.2,3.3,5.9
289,Tarrant,Texas,Fort Worth,76244,32.891218568385845,-97.28972151665387,2.86,26.0,27.1,78.5,2943,3.9,3.7,2.2,4.9,23.1,21.1,29.0,8.1,5.6,92582,2442,48.8,2563,51.2,7.5,16.4,11.2,14.8,7.3,5.0,4.8,1.8,0.3
290,Grafton,New Hampshire,Littleton,03561,44.3004206,-71.8054585,2.02,30.7,23.2,64.6,1755,12.4,11.4,4.9,17.3,20.0,12.3,15.7,3.0,2.5,53555,1585,53.2,1392,46.8,13.9,17.0,1.8,17.7,7.8,11.1,13.7,4.3,4.0
291,Jefferson,Illinois,Mount Vernon,62864,38.31243596653476,-88.94293498540834,2.02,26.0,16.9,59.2,1757,9.3,15.4,12.8,12.7,12.7,11.8,8.6,5.0,4.3,41494,1793,47.6,1975,52.4,4.1,16.5,11.1,11.0,4.9,4.6,13.2,7.2,3.9
292,Warren,Ohio,Cincinnati,45249,39.29343579284088,-84.31156222943773,2.13,9.9,46.8,77.1,2735,3.4,3.1,2.5,2.6,24.6,15.3,26.1,15.5,9.2,101452,2048,47.8,2241,52.2,5.6,18.0,12.6,12.3,12.4,5.5,7.8,3.5,1.6
293,Wayne,Michigan,Westland,48185,42.3406962,-83.3892884,2.14,17.0,7.0,79.4,1700,2.1,22.2,16.0,4.2,29.4,0.0,4.0,0.5,0.0,26021,1179,46.3,1369,53.7,1.8,40.2,14.9,14.0,1.7,2.2,4.4,3.0,0.5
294,Madison,Mississippi,Madison,39110,32.5197745,-90.102024,2.11,14.0,30.2,64.3,4819,0.6,5.0,20.7,9.2,11.2,15.0,27.8,3.2,6.3,77029,4551,49.5,4649,50.5,6.1,24.1,12.6,13.4,0.8,6.4,8.5,4.0,0.5
295,Bexar,Texas,San Antonio,78256,29.60380793676183,-98.60417320483117,2.01,6.2,30.0,76.3,3275,6.2,5.6,9.8,12.9,10.2,9.9,17.8,8.6,4.9,53805,2635,55.2,2137,44.8,23.0,30.2,11.7,5.5,2.0,3.6,2.7,2.6,0.0
296,Iberia Parish,Louisiana,New Iberia,70560,29.986585318333088,-91.81870638906496,2.6,47.2,10.2,53.5,1246,0.0,12.8,16.2,3.2,20.8,11.1,3.3,1.2,0.0,27992,1827,51.2,1744,48.8,0.2,18.8,11.0,5.0,5.5,4.0,10.1,5.2,3.3
297,Orange,Florida,Ocoee,34761,28.572109274282013,-81.51783424537297,2.8,21.8,19.1,71.9,1602,10.6,11.0,11.6,5.7,22.5,8.2,16.2,8.6,10.3,70385,1321,47.2,1475,52.8,1.2,13.4,11.4,13.1,11.5,6.2,8.7,4.6,2.3
298,Harrison,Mississippi,D'Iberville,39540,30.457265,-88.8885922,1.9,32.3,8.7,40.9,202,20.8,8.7,0.0,24.7,15.5,10.5,15.5,9.1,0.0,52721,236,47.7,259,52.3,0.0,5.3,0.0,14.5,12.3,4.2,30.1,13.7,14.9
299,Currituck,North Carolina,Grandy,27939,36.2135842,-75.8674884,2.26,35.6,21.2,58.1,969,3.4,9.2,9.2,11.8,13.7,20.2,16.7,10.5,2.2,67266,1105,54.2,933,45.8,2.5,8.6,13.7,16.0,7.9,9.3,12.2,7.1,2.6
300,Kitsap,Washington,Poulsbo,98370,47.7418961,-122.6380642,2.67,14.1,30.4,65.7,2445,3.4,4.3,3.4,5.4,12.1,15.6,26.6,8.7,18.5,104865,2271,48.3,2433,51.7,6.2,10.4,14.2,14.5,7.9,4.4,9.0,5.7,4.3
301,Butler,Ohio,Liberty Township,45069,39.37102,-84.3728219,3.12,17.9,37.9,72.9,4862,0.5,0.4,3.3,3.0,12.7,15.1,27.1,25.1,10.9,114524,4990,58.5,3538,41.5,6.9,13.1,13.4,14.9,7.6,4.5,7.1,2.7,0.4
302,Harris,Texas,Webster,77598,29.54583696014998,-95.13106759316875,2.79,36.9,12.1,71.7,1157,6.8,10.5,5.1,5.8,33.6,17.9,14.1,1.8,4.5,65469,1043,51.3,991,48.7,10.0,15.1,21.0,11.2,8.1,3.5,3.8,1.4,1.1
303,Walton,Georgia,Loganville,30052,33.842670207120285,-83.90856109064059,2.96,27.9,11.3,65.8,2590,6.3,5.1,9.1,7.5,15.2,15.3,14.1,21.9,8.6,87841,2363,45.4,2842,54.6,5.6,12.1,20.2,10.0,5.0,5.7,4.3,4.2,3.3
304,Smith,Texas,Tyler,75701,32.332759621967824,-95.26502787941752,3.23,23.7,13.8,78.0,1784,2.6,12.7,3.9,9.8,25.9,20.3,15.3,2.1,0.0,64970,1258,45.4,1511,54.6,16.9,12.4,11.2,10.2,9.6,6.6,3.9,6.5,0.5
305,Marion,Florida,Silver Springs,34488,29.196265687947832,-81.91452842263004,2.73,44.7,6.5,49.7,1372,4.2,11.8,10.0,28.6,20.0,5.4,6.5,0.0,0.0,42979,1658,49.6,1688,50.4,2.1,10.3,10.2,12.8,6.7,14.6,11.6,3.6,3.9
306,Lubbock,Texas,Lubbock,79403,33.59286909136953,-101.81706173381139,2.79,47.9,2.8,52.0,1238,11.6,13.2,16.4,10.0,10.8,16.3,1.8,0.8,0.0,27378,1594,50.7,1551,49.3,8.1,12.7,10.8,13.1,3.7,8.2,6.5,3.8,3.1
307,Morehouse Parish,Louisiana,Bastrop,71220,32.7792304,-91.88665,2.81,32.8,7.1,51.9,2098,2.6,12.9,6.1,12.0,17.4,13.5,15.7,3.8,1.2,52616,2229,43.5,2898,56.5,2.6,12.2,12.1,15.2,6.0,5.1,12.0,4.8,4.0
308,Lake,Ohio,Madison,44057,41.8043394,-81.0514444,2.36,31.6,10.9,64.2,2453,6.3,8.5,11.6,16.4,22.7,8.9,13.4,5.2,4.8,52668,2572,55.6,2056,44.4,6.0,9.4,7.8,18.6,5.2,7.3,13.4,6.8,3.0
309,Madison,Mississippi,Madison,39110,32.47457283,-90.14940838,2.74,4.8,37.6,79.5,2510,2.7,4.7,4.6,2.8,11.3,12.1,16.9,15.6,27.5,127125,2002,47.0,2254,53.0,3.9,7.1,12.8,17.6,11.3,5.6,8.7,2.8,0.3
310,Santa Cruz,Arizona,Nogales,85621,31.368541299999997,-110.93626259999999,3.0,28.1,11.8,54.8,1853,11.1,5.6,20.1,9.6,13.5,8.4,4.2,7.2,2.9,31675,2155,47.6,2372,52.4,10.4,10.4,12.8,10.2,6.9,3.4,5.9,4.1,0.2
311,San Bernardino,California,Fontana,92335,34.08495734991466,-117.4358889278254,3.82,29.4,12.4,68.8,2829,5.4,10.1,14.7,18.9,24.0,8.6,10.4,2.8,2.7,48295,3090,52.2,2826,47.8,8.2,15.1,16.7,13.2,2.9,1.8,3.7,0.5,0.9
312,Anderson,South Carolina,Anderson,29625,34.543264,-82.6964551,1.79,37.7,20.8,83.7,1761,3.1,6.0,8.1,28.2,26.8,14.8,4.0,1.4,0.0,42458,1232,52.0,1135,48.0,13.1,23.2,13.1,10.8,3.2,8.4,6.7,1.8,2.5
313,,Georgia,Stone Mountain,30083,33.79982452662381,-84.19661188163347,2.82,27.8,24.1,69.6,1618,13.0,6.5,9.2,20.2,25.6,4.3,9.4,0.4,2.7,39874,1395,40.5,2047,59.5,3.4,14.4,19.2,6.3,0.7,3.1,12.8,1.3,0.7
314,Maricopa,Arizona,Scottsdale,85258,33.5910441,-111.7972384,2.61,12.4,29.4,56.1,3092,1.6,2.7,4.4,2.8,10.3,9.0,19.3,7.6,40.9,149238,3519,52.6,3167,47.4,1.9,5.3,10.3,12.7,12.2,11.8,14.9,6.4,1.8
315,Kent,Michigan,Wyoming,49519,42.8604232,-85.7222337,2.36,22.6,19.1,67.9,2669,5.3,10.4,8.1,19.8,27.0,12.6,17.6,1.2,2.7,63580,2277,47.8,2489,52.2,3.5,15.5,11.0,18.7,8.3,5.6,3.4,6.9,5.1
316,Smith,Texas,Tyler,75703,32.26785765034776,-95.30714453362016,3.04,15.0,36.9,62.2,2034,2.0,2.5,8.0,7.3,18.8,10.3,20.8,17.3,10.6,98906,1942,46.0,2281,54.0,6.8,15.5,9.0,12.5,9.2,4.4,7.5,7.9,1.1
317,San Miguel,New Mexico,Las Vegas,87701,35.6041112,-105.2270915,2.38,31.8,13.9,37.9,1537,8.9,10.1,9.9,12.7,14.8,10.9,1.3,6.1,3.5,34512,2543,54.9,2089,45.1,8.4,8.0,14.0,14.6,7.3,9.9,10.3,4.0,2.4
318,Los Angeles,California,Los Angeles,90026,34.0775034,-118.264204,2.25,17.0,27.7,61.9,1496,4.3,18.7,6.5,8.7,17.0,11.0,10.2,8.0,8.6,53943,1314,47.6,1446,52.4,8.6,25.3,12.7,12.9,3.4,2.3,15.4,3.7,0.7
319,Lucas,Ohio,Toledo,43623,41.699576296046615,-83.65380557029006,2.36,19.7,25.7,77.0,1948,1.5,7.0,14.3,9.8,17.0,21.8,14.5,9.0,5.3,75250,1544,48.1,1665,51.9,4.7,24.2,7.1,13.8,5.7,8.0,8.1,3.9,2.7
320,Montgomery,Maryland,Rockville,20852,39.0522852,-77.1121764,1.63,5.8,35.8,69.9,3339,4.6,2.0,6.8,8.0,11.6,10.2,25.9,11.6,15.2,102013,2371,43.2,3114,56.8,6.9,25.1,14.6,10.9,5.5,4.8,7.9,7.9,2.8
321,,Georgia,Morrow,30260,33.58769430018927,-84.35411583563543,3.1,25.5,17.3,57.8,1210,9.8,12.9,12.2,6.9,30.0,6.7,15.6,6.5,0.0,58656,1305,45.5,1565,54.5,3.3,6.2,19.6,6.3,6.6,7.6,13.1,1.5,0.4
322,Jones,Georgia,Gray,31032,33.00635329715492,-83.53410116025914,2.65,45.7,18.5,58.3,2065,1.6,8.7,10.3,8.9,15.7,15.7,12.7,8.0,3.9,57545,2118,46.5,2438,53.5,5.7,17.3,15.5,11.4,5.0,5.0,8.3,3.0,0.9
323,Lee,North Carolina,Sanford,27332,35.4496085,-79.1341709,2.61,32.1,8.2,57.3,3401,8.5,11.9,11.4,15.2,23.5,15.8,6.1,1.2,0.5,48595,3637,46.2,4234,53.8,5.2,11.5,12.0,9.8,6.0,6.9,11.9,4.7,4.4
324,Grant,New Mexico,Silver City,88061,32.780740422725266,-108.2741085930513,2.4,33.6,16.6,57.4,2597,18.7,18.1,21.9,9.7,12.9,5.8,12.6,2.2,2.1,32361,2483,43.4,3234,56.6,2.4,13.5,15.7,8.9,5.4,6.7,12.0,6.9,1.9
325,Nassau,New York,BELLMORE,11710,40.6648919,-73.5218089,3.0,21.0,29.5,73.4,3192,3.5,4.2,3.0,3.6,14.4,9.5,14.8,16.2,31.5,141951,2723,50.5,2664,49.5,5.4,7.6,13.0,18.3,7.8,6.6,8.9,5.2,0.7
326,McLean,Illinois,Normal,61761,40.5314067,-88.9984007,2.28,31.4,27.9,59.1,2950,1.3,15.8,17.0,4.2,8.1,6.8,7.9,3.3,5.9,25608,3179,51.6,2986,48.4,29.2,18.3,7.0,7.2,1.6,1.2,3.1,1.2,1.8
327,Clark,Nevada,Las Vegas,89115,36.2399215,-115.0572102,3.11,26.4,9.0,52.9,2692,27.4,12.1,11.3,16.7,14.2,16.3,8.9,1.0,0.0,42935,3596,42.0,4961,58.0,6.4,23.6,15.9,8.1,3.1,3.1,3.9,1.1,0.0
328,,North Carolina,Ahoskie,27910,36.2758818,-76.9733972,2.47,33.6,9.9,55.2,1754,14.4,14.9,12.9,14.5,15.8,9.7,6.3,1.0,4.5,36205,1645,42.6,2216,57.4,7.8,13.8,10.5,11.1,9.0,7.4,11.1,6.0,2.2
329,Alachua,Florida,Newberry,32669,29.6454284,-82.6069126,2.78,24.9,22.9,60.3,2631,3.2,13.0,5.9,14.4,14.3,12.1,23.3,1.3,7.7,68455,2459,45.0,3005,55.0,7.4,11.0,11.3,12.2,6.6,9.6,10.3,2.5,0.8
330,Middlesex,New Jersey,East Brunswick,08816,40.46035935567463,-74.40268787926115,2.8,24.3,25.9,70.4,3296,3.2,8.0,5.7,6.2,8.2,11.9,24.3,9.3,17.2,104605,3157,51.4,2989,48.6,5.4,15.5,13.3,14.1,3.6,5.5,10.1,3.6,1.5
331,Los Angeles,California,Lancaster,93534,34.671336441325394,-118.14824094025188,2.26,20.4,12.7,55.6,1875,5.0,13.0,9.5,11.5,22.4,11.6,7.6,3.1,5.1,47232,2111,49.0,2193,51.0,3.1,21.0,14.6,8.5,2.8,7.2,7.2,8.3,0.7
332,St. Louis,Missouri,St. Louis,63121,38.7014491,-90.2910601,2.1,40.4,7.3,39.6,1271,4.1,16.4,17.4,19.0,25.6,9.8,1.2,0.0,0.0,37298,1747,46.6,2004,53.4,4.0,5.4,10.7,12.7,4.5,11.2,17.2,11.9,6.1
333,Dallas,Texas,Carrollton,75006,32.95325069809458,-96.85654744542543,2.07,13.1,33.0,72.9,3119,2.8,4.3,10.6,8.3,15.2,20.0,13.2,5.6,19.2,80999,2052,42.6,2763,57.4,7.1,10.3,14.5,13.7,9.2,11.0,12.0,8.1,0.5
334,Douglas,Nebraska,Omaha,68144,41.23008624562737,-96.13502193431509,2.39,31.2,19.1,74.6,1325,1.9,3.2,3.4,10.3,21.5,23.2,21.8,6.8,4.0,81557,1235,56.7,944,43.3,2.2,9.5,18.0,12.4,5.7,11.7,12.4,4.9,1.9
335,Orange,Florida,Winter Park,32789,28.586819874179977,-81.36356077423852,2.11,21.4,22.9,60.3,1566,5.7,11.5,10.5,5.3,18.5,6.4,18.9,2.6,8.4,56940,1161,42.7,1561,57.3,14.7,26.6,8.3,10.2,6.1,5.6,9.6,9.2,4.0
336,Los Angeles,California,Huntington Park,90255,33.9812534,-118.2302727,4.07,24.6,8.1,62.2,2505,8.3,16.8,12.2,12.8,20.3,11.4,9.5,1.7,4.3,44423,2624,48.7,2767,51.3,7.8,12.4,13.9,12.2,7.2,3.5,6.7,1.2,1.8
337,Leon,Florida,Tallahassee,32303,30.4561099,-84.2778278,1.84,17.8,30.8,77.6,1527,2.1,11.0,19.3,9.7,9.4,19.0,8.4,1.4,8.8,45841,1041,51.0,1000,49.0,32.1,26.4,11.2,9.0,3.9,5.7,5.7,2.3,0.0
338,Clark,Nevada,Henderson,89011,36.0554899967907,-114.99962977822211,2.16,47.9,11.8,62.5,1192,17.6,14.1,17.2,10.3,10.4,14.2,8.2,2.5,0.0,31188,1001,41.6,1405,58.4,5.4,23.3,7.9,15.1,3.9,10.5,10.4,1.3,0.9
339,Walton,Georgia,Monroe,30655,33.79548234002583,-83.7422840741763,3.19,42.2,9.0,62.8,3839,7.1,16.5,14.8,15.2,21.7,10.0,8.1,0.6,2.9,40691,4000,47.3,4461,52.7,8.2,13.5,10.9,13.3,4.4,4.5,6.7,1.6,2.2
340,Pinellas,Florida,Seminole,33777,27.8396416,-82.766208,2.19,35.9,19.7,65.1,2362,2.9,8.9,7.3,9.3,21.1,9.4,17.8,15.4,5.8,73986,1970,48.1,2124,51.9,3.5,13.3,16.3,11.1,6.4,9.7,12.8,9.8,2.3
341,Harris,Texas,Baytown,77520,29.7468536,-94.9742574,3.1,39.6,8.1,70.4,2734,6.8,6.5,5.5,21.6,24.8,12.1,13.1,3.7,0.0,53204,2825,52.0,2604,48.0,5.6,14.9,16.5,12.7,5.1,4.6,3.7,1.8,0.2
342,Manatee,Florida,Bradenton,34205,27.49570420578837,-82.59382570380154,2.56,25.8,25.5,63.8,2140,4.7,8.5,8.4,16.3,17.1,8.7,16.9,10.8,11.7,70321,2098,50.9,2024,49.1,2.5,7.1,12.7,6.3,8.6,18.8,15.1,6.1,1.6
343,Rankin,Mississippi,Pearl,39208,32.2811072,-90.1174771,2.12,32.1,12.0,72.3,3715,3.8,13.4,22.0,24.2,14.1,9.9,9.2,1.5,0.6,38291,3037,47.5,3350,52.5,6.0,19.5,12.5,10.2,5.9,4.5,6.3,8.6,0.7
344,,Virginia,Hampton,23666,37.04398503279128,-76.39412922845807,1.87,25.3,16.7,74.7,1946,0.7,21.9,1.2,11.2,18.7,10.5,15.7,4.8,0.7,50417,1434,42.0,1977,58.0,19.6,27.8,10.9,4.0,6.6,4.3,4.3,5.6,2.8
345,Allegheny,Pennsylvania,Pittsburgh,15235,40.463431132730804,-79.82654647915419,2.2,23.1,16.2,69.9,2872,7.0,6.9,20.1,13.1,26.9,11.5,8.5,4.8,1.4,53321,2257,42.9,3002,57.1,2.6,18.9,12.2,11.2,5.2,7.2,9.8,5.1,1.4
346,Essex,Massachusetts,Peabody,01960,42.5468494,-70.9457735,2.34,33.1,20.8,66.1,2719,3.3,4.4,5.2,5.9,12.7,11.0,33.8,11.6,8.0,101105,2397,51.1,2297,48.9,8.9,16.9,5.3,12.0,9.3,9.3,12.7,6.3,4.0
347,Arapahoe,Colorado,Greenwood Village,80112,39.59599106382588,-104.89768164019416,2.45,3.0,50.0,46.4,519,2.5,1.9,1.9,2.1,4.3,8.4,20.4,11.3,47.1,185556,645,51.3,613,48.7,3.7,2.9,6.2,15.2,5.6,10.5,15.3,12.0,10.3
348,El Paso,Colorado,Colorado Springs,80909,38.848820115719725,-104.77361936118666,2.32,23.2,17.4,70.7,3837,5.6,4.8,14.5,22.3,21.7,4.0,16.6,2.2,2.6,47952,3427,50.7,3335,49.3,9.9,25.7,7.1,13.1,6.6,4.8,6.1,3.6,2.8
349,Maricopa,Arizona,Phoenix,85018,33.48101755966202,-111.9955695238494,2.39,16.0,21.4,77.7,2597,5.9,9.6,11.2,12.8,18.3,10.9,12.2,5.4,9.5,61900,2099,46.3,2436,53.7,4.2,21.7,11.8,12.8,5.5,3.8,6.7,2.4,0.7
350,Clark,Nevada,Las Vegas,89107,36.1795611,-115.2066548,3.58,46.8,5.7,59.8,1611,14.7,5.8,11.4,22.4,14.6,7.7,13.8,0.6,0.0,38977,1642,41.6,2308,58.4,5.8,14.3,11.6,14.1,2.8,2.7,5.2,2.8,0.7
351,Sacramento,California,Sacramento,95815,38.5959206,-121.4260648,1.7,20.3,28.0,61.8,1393,3.2,8.1,5.6,8.2,29.9,14.4,9.3,4.8,2.4,55326,1112,42.7,1492,57.3,10.2,21.5,11.3,6.2,6.1,4.0,9.2,8.2,6.7
352,,Florida,Port Richey,34668,28.28303564001328,-82.7166283875302,2.18,37.1,21.6,52.2,529,0.0,10.8,16.9,13.3,20.3,12.1,4.8,4.4,0.0,42417,619,48.5,658,51.5,2.2,17.1,10.7,12.9,4.3,7.4,19.6,3.8,0.9
353,Wayne,Ohio,Wooster,44691,40.8269781,-81.9137492,2.1,43.7,14.3,57.6,3435,0.7,8.7,10.6,9.4,21.3,18.5,13.6,6.3,2.4,62904,3140,44.7,3891,55.3,5.2,11.9,10.4,10.8,7.2,9.1,13.3,8.6,5.8
354,Beaufort,North Carolina,Washington,27889,35.5120566,-76.996571,2.1,20.3,15.7,59.2,1906,10.7,11.7,8.0,15.2,14.4,8.6,15.4,1.4,6.6,44850,1621,43.4,2113,56.6,3.5,9.7,11.6,18.3,3.8,7.9,13.4,6.2,5.4
355,Platte,Nebraska,Columbus,68601,41.441404,-97.314121,2.93,29.0,13.7,67.3,2727,4.4,4.3,10.7,15.0,22.3,20.2,14.1,6.4,4.8,69275,2564,48.6,2717,51.4,3.6,10.2,17.5,11.6,7.4,3.2,7.7,5.2,0.9
356,Brunswick,North Carolina,Southport,28461,33.95106291792694,-78.04264974217234,2.46,28.6,14.3,51.3,2930,9.1,6.1,9.0,17.3,13.7,18.9,16.1,3.2,2.4,54583,3482,49.9,3496,50.1,2.6,9.0,11.4,16.1,5.2,6.5,18.5,5.3,1.9
357,,,Oakland Park,33309,26.1807421,-80.1505538,2.93,32.4,13.3,68.8,1911,8.0,7.7,4.4,22.1,21.7,10.1,7.5,4.8,5.1,49638,1932,53.7,1669,46.3,5.5,11.7,14.9,14.3,6.1,8.6,10.8,1.4,0.0
358,Collin,Texas,Prosper,75078,33.247375,-96.766653,3.62,10.8,37.4,62.5,2362,3.7,0.5,3.5,1.0,3.8,7.2,12.8,18.1,51.6,211667,2612,49.5,2663,50.5,5.1,3.8,16.0,22.3,4.8,3.8,6.4,1.9,1.2
359,Providence,Rhode Island,North Smithfield,02896,41.9762108537002,-71.51143216930821,2.39,26.1,25.1,69.7,1468,4.6,11.6,7.4,5.2,13.4,16.8,25.4,8.1,6.3,86087,1222,50.0,1222,50.0,3.7,21.7,12.9,12.2,6.1,8.1,9.9,4.8,3.6
360,Montgomery,Maryland,Rockville,20852,39.052531,-77.109988,1.63,5.8,35.8,69.9,3339,4.6,2.0,6.8,8.0,11.6,10.2,25.9,11.6,15.2,102013,2371,43.2,3114,56.8,6.9,25.1,14.6,10.9,5.5,4.8,7.9,7.9,2.8
361,Virginia Beach,Virginia,Virginia Beach,23452,36.8129451,-76.0697859,3.01,30.2,17.6,70.5,2137,5.1,5.5,8.3,10.7,17.1,17.4,29.1,5.3,2.6,85446,2169,52.5,1964,47.5,3.3,14.1,15.6,14.0,7.9,4.5,7.1,2.8,0.2
362,Salt Lake,Utah,West Jordan,84084,40.6227309,-111.9401876,3.31,32.3,11.6,74.3,2538,1.7,3.1,9.4,12.9,17.2,12.1,30.5,6.1,5.5,83971,2274,50.5,2228,49.5,6.7,14.9,14.1,13.5,2.5,4.8,11.0,1.4,0.8
363,Los Angeles,California,Long Beach,90802,33.7718153,-118.19129830000001,1.55,11.3,27.4,72.4,3268,13.3,5.0,9.8,14.0,18.1,8.9,14.1,4.8,3.1,48654,2879,57.0,2170,43.0,7.9,24.3,19.8,16.0,2.9,7.9,4.8,1.4,0.6
364,Knox,Kentucky,Girdler,40943,36.9381332,-83.8411746,2.7,36.5,5.4,33.3,803,4.7,13.3,12.8,14.5,16.8,4.2,7.7,0.8,0.8,27444,1381,44.8,1705,55.2,2.8,6.6,15.4,9.7,8.2,4.2,14.0,7.2,0.0
365,St. Clair,Alabama,Ragland,35131,33.7430318,-86.1552172,2.38,46.2,7.2,43.0,855,15.8,8.5,18.3,16.4,8.5,14.3,9.6,0.0,0.9,34858,1220,48.7,1285,51.3,4.4,12.5,13.7,11.9,4.6,6.6,12.2,6.3,2.5
366,Rhea,Tennessee,Evensville,37332,35.5846657,-84.9356784,2.53,40.3,13.2,58.9,2960,11.2,12.6,5.9,15.2,20.1,17.0,13.3,5.4,2.8,56370,3208,50.3,3175,49.7,5.9,9.6,13.1,12.7,6.7,6.6,10.6,6.0,1.6
367,Hawkins,Tennessee,Rogersville,37857,36.37077488292057,-83.01445291512863,2.28,48.2,9.9,51.8,2087,9.7,13.9,10.5,13.1,29.5,10.5,6.8,0.6,1.3,49085,2445,50.5,2392,49.5,4.8,10.9,11.8,14.0,10.1,6.1,15.5,4.9,1.4
368,Cleburne,Alabama,Delta,36258,33.52155890054965,-85.64117994544347,2.81,36.2,7.0,52.4,1510,5.5,10.0,4.3,29.4,16.4,11.0,8.7,3.2,2.7,44401,1835,52.6,1656,47.4,8.4,11.5,10.1,13.5,8.0,4.7,9.1,6.8,5.6
369,Cleburne,Alabama,Ranburne,36273,33.529459,-85.337471,2.58,39.0,12.9,52.5,1898,1.6,10.3,15.2,11.6,12.7,18.5,10.5,8.1,1.0,52679,2345,52.0,2166,48.0,5.9,16.5,8.0,13.0,5.7,8.5,11.4,4.2,2.1
370,Blount,Alabama,Altoona,35952,34.120806852349745,-86.39457778478834,2.51,33.9,11.6,55.5,1321,1.1,8.8,10.0,19.4,18.5,9.0,15.8,3.8,2.8,49971,1563,53.6,1355,46.4,5.8,18.3,11.6,10.4,6.2,7.5,12.4,5.2,1.1
371,Jackson,Tennessee,Bloomington Springs,38545,36.245409131218224,-85.61506682478019,2.38,53.0,15.9,62.8,1212,4.9,14.4,12.2,20.8,15.2,12.0,14.6,0.8,0.8,44766,1150,49.2,1188,50.8,3.0,11.1,14.2,11.0,8.3,10.9,11.9,7.0,1.5
372,Kootenai,Idaho,Coeur d'Alene,83814,47.6951184,-116.8058253,1.72,30.9,7.8,50.9,1422,1.8,13.6,12.5,23.7,8.7,13.5,8.4,0.9,1.6,39257,1672,52.9,1488,47.1,4.3,16.5,11.7,7.8,7.6,4.9,16.2,8.7,7.2
373,Orangeburg,South Carolina,Orangeburg,29115,33.484648725023646,-80.86607248472343,1.75,24.8,12.3,46.4,1096,20.2,12.2,6.7,7.1,12.8,3.8,0.0,0.0,0.4,11150,1249,43.9,1594,56.1,5.0,17.0,13.9,10.5,8.8,3.6,11.9,4.9,6.1
374,Anderson,Tennessee,Oak Ridge,37830,36.0227848,-84.24933,2.41,32.7,15.1,59.3,2002,4.3,7.7,7.2,17.4,31.7,6.6,6.8,3.8,3.2,51837,2327,53.8,1997,46.2,7.1,13.9,12.4,13.8,6.0,4.9,9.2,1.3,3.5
375,Mower,Minnesota,Austin,55912,43.6858946,-92.9902429,2.31,34.5,22.2,58.1,983,4.1,8.1,10.2,13.6,16.5,10.0,16.4,9.0,5.6,59583,1028,46.6,1178,53.4,4.4,11.4,12.1,8.0,7.8,5.4,9.2,8.8,5.8
376,Marion,Mississippi,Columbia,39429,31.24869129233606,-89.83254743398126,2.44,26.5,10.9,41.4,1444,7.1,20.8,7.8,10.6,8.2,12.6,14.0,1.6,0.2,31125,1811,43.5,2354,56.5,6.3,14.8,13.6,7.0,8.4,6.0,10.9,6.5,2.8
377,Canyon,Idaho,Nampa,83687,43.6053792,-116.5101649,3.46,26.2,24.2,51.4,1673,3.5,3.8,9.4,10.0,23.4,11.8,17.0,8.6,2.7,63107,2488,52.5,2254,47.5,12.6,9.5,7.9,13.6,3.7,3.2,4.9,3.5,0.8
378,Mohave,Arizona,Bullhead City,86442,35.101422,-114.5946541,2.04,33.8,7.0,38.2,1319,8.3,19.4,18.8,19.4,14.1,8.2,2.5,0.5,1.1,32049,1936,47.7,2126,52.3,5.9,11.3,6.7,9.7,3.3,6.0,23.4,13.7,3.6
379,,Virginia,Roanoke,24017,37.29599308509558,-80.00684883773489,2.32,41.4,6.0,64.0,2500,6.0,21.7,11.3,15.3,11.1,6.3,4.8,0.0,1.4,25122,2407,45.5,2880,54.5,6.6,14.3,14.1,10.9,6.0,5.7,6.6,2.1,2.3
380,Fort Bend,Texas,Fulshear,77441,29.70970327105433,-95.91801662755861,3.43,12.9,39.6,64.6,11051,5.8,3.0,0.9,3.9,8.0,7.7,24.1,15.8,33.5,146219,11677,49.0,12176,51.0,3.3,7.9,21.6,14.4,5.0,3.6,5.4,1.7,1.0
381,Contra Costa,California,Walnut Creek,94595,37.87811867306705,-122.07198132811908,2.58,11.1,40.4,55.6,3415,7.5,3.1,10.1,2.6,10.5,10.1,15.7,8.5,38.5,129954,3494,46.6,4007,53.4,4.9,5.7,10.8,13.9,7.2,5.7,13.7,8.8,8.1
382,Dallas,Texas,Rowlett,75089,32.9087828,-96.5771292,3.04,29.7,24.9,80.8,3343,4.4,1.1,3.1,3.8,22.6,17.7,36.8,6.2,6.7,99712,2530,46.3,2940,53.7,7.2,11.5,25.4,11.4,7.8,3.7,4.5,2.5,0.2
383,Apache,Arizona,Springerville,85938,34.2224056,-109.3307345,3.73,32.1,8.1,36.7,976,1.6,13.5,11.4,8.3,11.9,16.3,18.9,2.2,3.9,51678,2086,58.6,1471,41.4,5.1,14.0,14.3,13.4,2.3,7.0,6.8,3.1,0.3
384,Summit,Ohio,Northfield,44067,41.3135691020431,-81.5572450136447,1.77,23.6,25.2,63.8,2066,5.9,5.1,6.1,8.4,18.8,13.4,22.5,10.3,8.6,83864,1742,49.2,1796,50.8,3.8,11.2,15.0,10.0,8.9,8.0,19.8,9.8,1.6
385,Rockdale,Georgia,Conyers,30013,33.65152865916501,-84.005535934347,2.76,39.8,14.7,70.7,3200,9.6,11.5,13.0,16.4,24.9,15.6,8.1,2.4,3.8,53810,3006,49.7,3048,50.3,4.6,18.7,15.5,12.5,5.5,4.7,5.9,0.8,2.5
386,Denton,Texas,Denton,76205,33.1914566,-97.1127218,2.71,29.8,14.7,51.5,1861,10.2,10.0,7.3,16.6,11.7,15.4,16.3,7.9,4.8,61164,2265,53.9,1939,46.1,16.4,18.1,14.7,8.0,7.6,5.4,6.1,3.1,1.2
387,Bexar,Texas,San Antonio,78212,29.470776214137754,-98.49967592287642,2.91,25.5,9.2,65.8,1422,11.5,8.8,12.4,19.2,19.9,9.0,13.6,1.2,2.9,44881,1361,52.0,1256,48.0,5.7,18.3,16.5,13.4,9.6,2.2,8.3,4.9,0.6
388,Orange,Florida,Orlando,32809,28.4513059,-81.3946258,3.6,38.1,11.9,56.4,2806,3.6,5.0,8.7,22.9,19.6,4.9,24.3,1.8,3.5,57557,3175,53.9,2715,46.1,6.9,19.1,12.4,11.4,4.0,5.6,15.2,3.7,1.5
389,Santa Clara,California,Santa Clara,95050,37.34862658436338,-121.94795337084663,2.43,18.0,32.1,56.6,2372,4.6,6.4,10.8,7.0,7.2,9.5,19.4,11.6,18.4,95156,2320,50.7,2257,49.3,18.0,16.7,8.1,5.8,5.2,2.1,7.0,3.0,0.3
390,Harris,Texas,Seabrook,77586,29.573068515863163,-95.0585936748808,2.65,16.5,30.9,59.8,2665,6.9,0.0,1.7,1.4,15.8,11.7,29.5,16.7,17.2,116750,2888,52.8,2580,47.2,5.6,5.5,10.7,16.5,6.8,6.9,15.6,5.0,1.8
391,Yolo,California,Davis,95618,38.555103,-121.6984808,3.01,5.0,30.9,65.6,1853,5.8,4.9,1.7,5.1,13.0,0.4,17.2,15.7,34.6,151250,1731,48.5,1836,51.5,11.0,10.2,10.7,11.3,10.6,7.1,5.4,3.6,0.2
392,Pima,Arizona,Tucson,85746,32.119836,-111.0281835,3.47,29.9,10.8,63.8,3301,6.1,11.0,9.8,10.3,22.2,12.6,15.8,5.1,2.7,57953,3610,51.9,3351,48.1,6.7,13.1,11.6,15.8,4.8,4.2,8.6,1.9,1.0
393,Citrus,Florida,Homosassa,34448,28.782124025774,-82.5591921900237,1.98,35.9,10.8,38.0,864,31.4,18.1,12.1,7.5,28.2,21.0,2.5,0.0,0.0,57662,1214,53.5,1057,46.5,0.2,0.0,10.9,10.0,10.1,9.1,32.8,24.9,0.4
394,Shelby,Tennessee,Memphis,38116,35.02131608881995,-90.01984339971456,1.98,39.2,9.9,66.2,2613,12.8,20.0,12.8,6.8,16.2,7.4,4.4,2.8,0.7,26096,2351,46.9,2667,53.1,2.9,17.1,7.3,15.3,8.8,6.3,10.9,2.8,2.7
395,Lehigh,Pennsylvania,Allentown,18106,40.5613691,-75.5660377,2.62,27.2,28.3,65.4,3435,5.6,4.0,6.1,11.7,19.4,15.5,14.6,14.7,11.8,86579,3275,48.5,3474,51.5,4.6,8.9,12.5,12.5,7.2,8.1,10.3,4.8,2.6
396,Grayson,Texas,Sherman,75090,33.70625798610932,-96.59175824446267,2.05,34.2,10.7,48.1,1150,4.0,9.1,8.3,29.9,17.3,2.9,15.5,2.1,2.9,40532,1417,48.0,1535,52.0,2.8,13.9,4.1,9.4,8.2,8.3,16.2,8.3,8.1
397,Shelby,Alabama,Hoover,35242,33.4185494,-86.667681,2.69,13.7,45.9,51.4,2709,4.9,1.8,1.5,3.3,11.9,15.3,12.5,19.0,30.3,147500,3093,50.9,2979,49.1,5.2,4.6,10.1,13.5,6.4,7.9,17.0,12.4,3.5
398,Ector,Texas,Odessa,79762,31.884633709548346,-102.37444525593664,2.73,31.8,7.0,69.3,2154,5.3,5.5,5.8,21.6,14.5,17.0,13.1,2.3,4.4,52083,2260,50.8,2192,49.2,4.4,16.4,15.9,9.1,3.8,3.7,6.5,5.2,0.0
399,Allen,Indiana,Fort Wayne,46805,41.11497203442187,-85.14750246407381,1.95,36.4,19.2,70.5,1300,5.9,6.0,17.7,22.9,15.7,24.0,3.0,0.0,0.8,47994,1360,61.0,868,39.0,8.8,12.7,10.7,16.0,6.5,6.0,7.7,3.4,1.1
400,Mecklenburg,North Carolina,Pineville,28134,35.0894034,-80.9146817,2.92,23.7,24.4,71.0,2445,9.1,8.9,13.6,11.7,8.2,9.3,20.1,12.2,8.9,80667,2231,47.0,2518,53.0,5.7,15.7,14.0,13.6,5.5,2.9,4.6,1.3,0.9
401,Broward,Florida,Fort Lauderdale,33316,26.100776124908577,-80.1337252323452,1.77,11.0,41.2,61.8,2310,3.1,11.0,5.7,8.2,14.2,9.2,25.2,4.6,9.5,67304,2175,54.6,1805,45.4,2.8,12.7,10.3,17.3,11.2,12.9,15.8,7.0,0.8
402,Miami-Dade,Florida,Miami,33137,25.825743,-80.1882693,3.11,39.7,7.4,56.5,1353,10.6,18.0,10.3,15.3,7.1,4.3,5.4,5.8,0.0,23603,1573,48.9,1641,51.1,5.3,17.4,17.2,9.4,2.8,3.9,7.9,3.8,0.7
403,Forsyth,Georgia,Cumming,30028,34.2681578,-84.0943224,3.05,16.2,36.2,77.6,3109,4.0,4.8,5.1,9.4,10.6,9.3,30.6,12.0,12.0,113220,2762,51.5,2600,48.5,9.7,14.2,13.7,15.8,4.1,2.5,7.6,2.2,0.5
404,Travis,Texas,Austin,78758,30.3928011,-97.7259063,1.48,4.8,42.8,89.2,4946,2.4,1.3,3.6,4.4,16.3,15.5,40.0,7.4,4.3,101822,2796,47.8,3050,52.2,11.8,52.9,9.3,14.0,1.0,4.3,1.0,0.7,0.0
405,Pinellas,Florida,Largo,33770,27.930527356190424,-82.78860844337888,2.43,33.4,12.5,57.8,1611,11.5,8.7,14.4,16.6,12.5,10.3,4.6,3.1,2.7,34769,1618,47.3,1800,52.7,2.7,13.5,12.2,10.0,10.8,5.1,14.1,4.1,2.5
406,DeKalb,Georgia,Stone Mountain,30083,33.764068,-84.2213339,3.26,36.2,18.6,59.1,1209,24.4,23.7,6.9,14.8,18.6,10.1,8.4,6.8,4.1,48092,1012,42.6,1365,57.4,6.9,10.1,20.4,11.9,3.6,9.0,9.0,4.8,1.6
407,Bell,Texas,Temple,76504,31.0766221,-97.3772336,1.85,7.0,26.7,62.6,1305,10.2,5.4,9.8,7.8,17.4,3.7,29.9,6.2,0.0,56402,1234,44.4,1546,55.6,10.4,28.6,15.8,4.0,1.7,3.7,9.0,4.8,2.5
408,,Virginia,Hampton,23666,37.04195303526977,-76.38684304692799,1.87,25.3,16.7,74.7,1946,0.7,21.9,1.2,11.2,18.7,10.5,15.7,4.8,0.7,50417,1434,42.0,1977,58.0,19.6,27.8,10.9,4.0,6.6,4.3,4.3,5.6,2.8
409,Salt Lake,Utah,South Jordan,84009,40.57330489318137,-111.97913926813995,3.76,18.4,31.5,70.7,3626,2.6,2.8,1.6,3.2,9.1,11.8,27.5,21.8,21.3,136918,3637,51.9,3372,48.1,5.8,9.9,13.4,13.2,8.2,6.4,7.3,3.1,0.8
410,Cook,Illinois,Chicago,60607,41.8674915,-87.6429473,1.84,8.8,29.3,54.9,3215,15.4,1.5,2.0,6.1,12.9,8.7,31.2,6.6,25.5,120112,3053,49.4,3128,50.6,19.7,15.6,13.1,8.8,3.5,2.8,4.2,0.3,1.0
411,Denver,Colorado,Denver,80224,39.698856,-104.9052852,2.34,20.1,29.6,72.7,3262,6.6,6.0,6.5,24.7,16.9,9.3,14.2,8.2,1.5,50189,2711,47.4,3014,52.6,8.0,22.8,18.9,8.1,4.3,0.8,6.0,2.6,3.3
412,Miami-Dade,Florida,Coral Gables,33146,25.7127423,-80.2785407,2.43,8.5,39.1,67.1,422,3.1,0.0,9.8,11.0,22.3,6.5,7.1,7.4,28.2,73438,356,43.5,463,56.5,10.3,17.3,9.0,9.0,10.1,2.2,8.2,2.8,5.6
413,Henry,Indiana,New Castle,47362,39.885657,-85.3863149,2.43,44.5,11.3,61.4,2189,6.4,8.0,10.4,21.1,20.4,14.0,13.3,3.2,3.5,53689,2242,50.3,2215,49.7,6.6,10.5,8.5,13.1,6.8,8.9,10.7,8.1,1.9
414,Alachua,Florida,Gainesville,32608,29.6149302,-82.3726594,2.96,11.8,31.3,62.0,1287,11.0,21.7,13.1,8.7,22.5,4.3,7.9,1.4,0.0,30658,1025,47.8,1119,52.2,44.9,30.1,6.9,3.8,1.1,0.3,0.7,0.0,0.0
415,Cameron,Texas,Brownsville,78521,25.9087504897292,-97.46962038330777,4.03,28.3,1.7,46.1,730,5.6,19.4,16.6,21.2,14.9,1.9,0.0,2.4,0.0,29943,1140,48.1,1232,51.9,7.4,9.7,12.1,14.0,3.7,3.3,7.1,5.9,0.8
416,Ward,North Dakota,Minot,58701,48.19997968293663,-101.29650195590958,1.97,27.4,21.5,59.8,2151,0.8,4.0,15.7,12.8,18.5,17.3,7.0,5.7,6.7,52660,2193,46.0,2578,54.0,7.9,17.5,7.7,7.5,1.9,3.3,16.2,7.0,6.2
417,Hamilton,Indiana,Westfield,46074,40.043497,-86.181504,2.67,35.4,28.3,65.6,2725,2.5,10.1,9.2,2.7,9.1,14.1,11.6,16.4,22.1,102500,3012,53.9,2578,46.1,4.4,13.6,11.0,12.0,8.4,4.3,11.4,0.9,4.0
418,St. Joseph,Indiana,Mishawaka,46545,41.695426697105816,-86.19058058406144,1.71,39.5,6.9,70.2,2561,14.7,22.7,11.5,21.8,24.0,3.0,0.7,0.0,0.0,34534,2254,53.5,1963,46.5,10.0,15.7,15.0,13.0,3.9,5.3,8.1,6.9,4.3
419,Bernalillo,New Mexico,Albuquerque,87110,35.12860497317571,-106.60401327891682,2.17,20.9,24.1,62.6,1733,7.3,2.7,8.2,13.9,21.8,13.1,22.4,5.7,0.3,63219,1672,50.8,1618,49.2,8.8,16.9,12.2,12.3,4.8,4.9,9.0,13.3,0.9
420,Multnomah,Oregon,Portland,97209,45.522696965640804,-122.69220449565844,1.42,7.9,51.3,77.1,1997,2.1,4.0,0.5,14.3,24.7,10.9,23.8,6.7,6.7,73633,1438,53.9,1230,46.1,7.4,37.7,15.8,9.3,2.5,1.6,13.1,3.9,3.1
421,Chelan,Washington,Wenatchee,98801,47.4530483,-120.3338413,2.79,22.6,22.1,67.3,2299,4.0,7.6,8.4,7.5,30.3,17.0,14.4,6.2,4.6,64459,2375,52.4,2155,47.6,4.5,13.8,16.6,11.0,3.7,3.5,10.2,3.9,1.9
422,Allen,Indiana,Fort Wayne,46805,41.096817671648324,-85.090202922788,1.98,47.1,11.3,46.4,1639,4.5,30.3,9.1,12.4,11.5,9.7,5.0,1.2,4.8,29670,1811,40.7,2641,59.3,5.6,10.6,8.2,7.6,8.7,5.5,11.7,4.4,9.6
423,DeSoto,Mississippi,Southaven,38671,34.991794065486225,-90.0205676401854,3.12,34.6,5.5,48.9,702,8.0,6.9,11.1,13.8,38.6,9.1,9.4,0.0,0.2,55359,1016,50.0,1018,50.0,4.6,12.5,9.6,8.9,1.4,3.3,13.2,4.0,1.4
424,Bulloch,Georgia,Statesboro,30458,32.44280214938114,-81.76797135475182,2.21,26.9,28.4,67.1,2457,5.2,20.0,9.7,8.7,24.4,7.2,6.5,8.7,1.6,48825,2364,53.4,2061,46.6,25.3,13.5,11.6,7.2,2.9,3.8,9.7,3.3,0.7
425,,Georgia,Statesboro,30458-4690,32.45846041309716,-81.77972821539116,2.47,37.0,13.0,69.5,1969,6.2,16.4,14.6,21.0,17.1,5.3,8.6,2.4,0.6,38825,2148,48.7,2264,51.3,5.6,13.7,10.7,11.3,3.3,7.9,5.2,3.4,0.2
426,Henry,Georgia,Stockbridge,30281,33.5278776,-84.1967278,2.74,37.9,8.7,57.3,1452,1.2,9.2,6.9,19.8,33.2,6.5,13.6,1.4,2.6,53472,1965,60.3,1294,39.7,3.7,17.7,7.0,16.5,4.2,9.9,11.1,2.6,0.0
427,DuPage,Illinois,Downers Grove,60515,41.783786069363956,-88.03767543286085,2.35,11.2,36.4,76.1,2485,6.3,1.7,2.8,17.2,7.5,9.3,33.7,16.5,10.1,116827,1912,50.3,1892,49.7,6.7,21.2,10.9,11.7,10.8,8.7,7.3,2.3,1.6
428,Cleveland,Oklahoma,Oklahoma City,73139,35.3758325,-97.530124,2.61,33.6,18.6,66.8,2755,3.3,3.9,3.8,21.8,16.5,22.3,24.2,2.7,0.7,74987,2655,52.6,2395,47.4,7.5,13.4,19.4,13.5,3.9,4.2,5.9,5.9,2.2
429,Sumter,South Carolina,Sumter,29150,33.946223326227624,-80.37314399450683,2.16,31.0,16.8,65.3,2314,14.0,20.5,8.9,18.2,10.2,9.2,10.8,0.6,2.8,35791,2490,51.6,2339,48.4,12.9,15.7,8.6,12.5,7.3,3.4,11.8,2.7,2.4
430,Gregg,Texas,Longview,75605,32.5371042,-94.7454287,2.01,28.1,12.7,77.6,2536,6.0,14.7,11.0,5.3,33.7,5.7,11.6,2.5,2.2,54315,1949,50.3,1923,49.7,13.6,28.3,10.6,9.7,4.5,7.4,3.8,1.6,0.4
431,Contra Costa,California,Antioch,94509,37.99520902076911,-121.80675642322603,2.72,26.5,11.0,58.2,3658,9.2,5.0,4.2,2.3,31.2,13.3,19.4,8.1,7.1,74245,3843,49.5,3914,50.5,3.9,16.6,11.4,14.1,6.4,4.3,13.0,1.7,0.5
432,Salt Lake,Utah,West Jordan,84088,40.6133452,-111.9813028,3.5,33.2,17.5,70.7,1649,1.3,6.2,2.5,10.2,10.1,17.8,28.9,18.6,3.8,102813,1385,47.1,1554,52.9,4.3,18.0,13.5,10.6,6.7,7.2,10.3,3.6,0.7
433,Harris,Texas,Houston,77075,29.618870632503018,-95.22983895899308,2.93,37.2,12.9,65.2,1631,7.3,12.6,16.5,20.6,18.4,8.2,7.1,1.5,0.0,39583,1693,49.4,1736,50.6,7.9,13.3,10.6,14.6,3.4,2.2,8.3,1.2,1.6
434,Dallas,Texas,DeSoto,75115,32.60674020420442,-96.82480787777712,2.46,20.7,14.8,70.9,2423,3.8,5.9,15.7,9.5,18.3,14.4,12.4,6.1,3.3,56577,1925,43.8,2473,56.2,4.7,12.2,13.7,12.5,7.8,7.8,9.7,2.8,1.2
435,DuPage,Illinois,Carol Stream,60188,41.9312398,-88.1233977,2.33,15.4,31.7,69.0,2184,2.2,0.8,4.7,23.5,8.9,10.7,17.7,13.0,17.7,95893,1937,52.9,1726,47.1,3.5,14.0,9.6,13.8,7.5,11.4,15.0,6.0,0.7
436,Morris,New Jersey,Mt Olive,07836,40.8829119,-74.7020417,3.01,21.4,35.4,71.5,1631,7.4,1.0,4.7,1.3,1.3,23.7,16.1,14.9,35.6,153636,1395,47.2,1562,52.8,2.5,8.4,20.2,10.8,9.8,8.3,11.3,0.9,1.1
437,Los Angeles,California,Long Beach,90815,33.7885118,-118.1336389,2.03,7.0,41.3,67.1,1775,4.2,4.7,10.1,6.5,18.6,11.6,11.4,4.7,21.3,69950,1694,54.1,1436,45.9,6.6,14.0,13.6,14.0,7.3,10.4,7.2,8.1,2.1
438,Clark,Nevada,Las Vegas,89119,36.065975799230046,-115.17327933885365,2.19,29.5,10.7,76.4,2683,11.7,11.0,10.6,27.8,21.1,6.5,13.6,1.0,1.2,44808,2382,56.6,1826,43.4,7.4,24.0,12.0,11.4,7.1,8.0,6.5,2.9,0.3
439,San Diego,California,Encinitas,92024,33.04932292,-117.29433792,2.73,15.1,37.0,78.4,2432,3.5,3.2,5.3,2.9,11.7,6.9,20.4,12.7,33.8,145703,1916,52.9,1705,47.1,3.3,15.8,16.9,15.0,10.9,7.7,7.3,3.1,0.2
440,Oneida,New York,new hartford,13413,43.091374406332115,-75.31536121849331,2.05,24.5,14.7,43.2,1752,3.0,20.9,7.2,18.5,18.1,18.5,9.6,5.2,0.0,53478,1735,38.2,2809,61.8,6.4,6.6,8.6,10.8,7.5,4.8,18.2,15.3,10.1
441,Pasco,Florida,Port Richey,34668,28.298147409102096,-82.70780163204998,2.18,37.1,21.6,52.2,529,0.0,10.8,16.9,13.3,20.3,12.1,4.8,4.4,0.0,42417,619,48.5,658,51.5,2.2,17.1,10.7,12.9,4.3,7.4,19.6,3.8,0.9
442,Dallas,Texas,Grand Prairie,75050,32.755442672225215,-97.01882793638859,2.44,43.6,5.9,61.7,1423,8.3,7.8,28.6,14.2,15.4,16.1,8.4,0.2,0.9,40789,1656,52.3,1510,47.7,3.2,20.3,10.5,9.4,5.3,2.1,14.9,1.1,0.9
443,Maricopa,Arizona,Scottsdale,85257,33.468848,-111.910516,2.1,8.7,40.1,75.7,2673,6.5,11.7,3.8,4.7,20.8,11.8,19.9,13.0,13.8,85625,1872,48.9,1960,51.1,6.9,31.7,8.4,8.5,6.6,9.9,12.1,4.8,2.3
444,Kankakee,Illinois,Kankakee,60901,41.1344507,-87.8775955,2.52,47.7,4.0,56.1,1499,15.7,11.1,20.7,17.6,14.7,11.3,4.9,0.0,0.0,32750,1369,42.2,1878,57.8,11.4,8.9,13.0,14.2,4.4,4.6,11.5,4.8,3.6
445,Allegheny,Pennsylvania,Tarentum,15084,40.570503080593795,-79.80170635525253,2.44,44.2,17.9,70.1,686,1.7,3.9,5.3,16.2,14.0,19.0,18.6,5.9,8.3,77656,561,50.4,552,49.6,5.3,13.3,9.5,11.7,15.4,8.1,12.2,3.1,5.4
446,,Oklahoma,Sand Springs,74063,36.138503979883154,-96.10292281532952,2.48,23.2,13.5,60.4,1526,9.4,9.6,3.4,18.2,20.0,17.0,14.5,3.2,5.3,62157,1520,45.5,1823,54.5,5.3,11.8,13.0,10.1,7.3,5.7,12.6,2.8,1.2
447,Collin,Texas,Sachse,75048,32.9930899,-96.5680795,2.74,18.2,34.4,78.9,4432,5.3,0.6,6.8,3.6,14.2,23.9,25.6,12.6,10.2,92019,3514,47.1,3942,52.9,7.3,17.9,14.5,17.2,2.8,3.0,6.5,1.0,0.0
448,Riverside,California,Riverside,92501,33.98295504018,-117.37776766847,2.27,20.4,14.8,56.3,2090,10.0,7.4,9.8,11.8,11.2,14.3,16.1,3.6,2.4,47255,2046,47.4,2270,52.6,5.6,30.2,14.8,12.8,3.0,2.9,4.9,3.6,1.6
449,Tarrant,Texas,Arlington,76015,32.6872176,-97.1321096,2.41,21.9,20.8,71.0,2313,4.3,9.4,10.2,17.0,21.1,16.8,8.0,4.2,2.4,52680,1982,46.0,2329,54.0,9.6,21.4,13.5,8.2,4.8,7.4,4.1,1.8,0.7
450,Cook,Illinois,Oak Forest,60452,41.622377450620164,-87.73728308056113,2.5,31.8,18.7,69.6,3455,4.2,8.8,9.1,14.9,14.8,15.0,23.3,6.9,4.1,68021,3253,52.2,2980,47.8,7.7,11.8,7.8,12.3,12.3,6.2,14.6,3.2,0.5
451,Charlotte,Florida,Englewood,34224,26.9352948,-82.3122053,2.04,47.3,9.5,25.6,885,9.4,13.6,13.4,16.6,19.2,12.6,10.1,2.4,0.6,42552,1758,48.7,1850,51.3,2.8,2.6,3.5,10.5,6.7,6.8,29.2,23.6,8.0
452,Harris,Texas,Katy,77494,29.77775245,-95.7781321,2.59,15.8,32.7,69.0,7266,6.0,5.2,9.9,9.4,25.5,14.0,18.9,5.6,4.1,65852,6167,45.0,7532,55.0,8.4,20.6,11.1,13.1,5.5,2.8,6.0,2.5,3.2
453,Tippecanoe,Indiana,Lafayette,47905,40.3944733,-86.8532462,2.15,34.5,22.9,82.8,2316,0.0,15.7,6.9,17.5,22.0,17.9,2.9,1.2,1.1,44290,1386,40.2,2062,59.8,12.2,21.8,13.9,4.6,0.8,8.6,7.1,2.5,0.0
454,Kendall,Illinois,Oswego,60543,41.71781,-88.3185011,2.7,35.7,14.6,67.3,2774,0.0,0.0,0.0,8.7,39.3,0.0,11.3,21.6,14.2,0,2243,37.5,3741,62.5,7.1,6.7,11.5,19.6,14.3,1.0,5.6,1.9,0.0
455,Delaware,New York,Oneonta,13820,42.4451171,-75.0069963,2.45,40.3,12.0,52.8,1352,4.8,8.8,15.8,19.2,22.2,9.8,13.1,7.1,1.5,52364,1277,43.5,1659,56.5,10.7,12.4,11.1,9.0,5.2,10.5,14.5,9.2,0.7
456,Jefferson,Kentucky,Louisville,40223,38.2713564,-85.5678233,2.37,28.6,19.8,62.7,2597,5.2,14.0,3.4,16.0,18.4,14.7,19.2,5.8,5.4,72697,2421,49.3,2486,50.7,2.5,18.1,16.9,11.8,8.2,7.0,10.4,4.2,1.8
457,White,Arkansas,Searcy,72143,35.24337019586817,-91.73465844159597,2.15,39.1,8.9,50.5,953,9.9,16.6,18.5,33.9,7.9,4.1,3.3,0.0,0.0,34448,987,40.7,1438,59.3,16.5,9.9,13.6,5.7,4.8,4.3,9.5,5.8,1.3
458,Carroll,Ohio,Carrollton,44615,40.57260442531774,-81.0861367878419,2.26,40.5,9.8,54.2,2358,2.6,12.0,9.6,17.3,21.3,5.6,12.4,4.1,4.3,47253,2732,49.8,2758,50.2,4.3,11.9,7.3,12.6,7.8,5.3,11.6,9.1,3.6
459,Outagamie,Wisconsin,Appleton,54911,44.26112070839792,-88.41552744861842,2.2,32.0,16.3,55.8,1234,4.6,22.5,16.6,9.8,9.8,12.1,4.3,0.9,6.5,32633,1441,51.7,1346,48.3,15.5,14.5,16.7,11.6,4.2,3.8,4.0,1.0,0.8
460,Jefferson,Kentucky,Louisville,40219,38.140033,-85.682736,2.13,35.6,26.3,72.3,2182,1.6,6.2,7.1,18.4,39.1,7.8,11.1,0.8,0.9,55458,1735,47.6,1912,52.4,11.7,29.8,7.2,11.0,4.6,2.3,6.8,4.2,0.3
461,Macomb,Michigan,Warren,48092,42.499588,-83.083977,2.28,29.7,16.3,59.0,1913,5.0,11.3,7.2,19.5,18.4,14.8,10.8,7.8,1.6,54788,2077,53.2,1829,46.8,4.0,21.7,10.1,10.9,8.5,7.8,12.1,3.4,2.9
462,San Bernardino,California,Upland,91786,34.1082378,-117.6494458,3.15,27.6,12.5,69.8,3256,6.8,5.5,3.5,7.8,20.9,19.9,17.4,7.6,10.9,85583,2981,51.1,2848,48.9,6.7,15.4,11.6,12.9,6.1,7.0,8.7,2.9,2.3
463,Hinds,Mississippi,Utica,39175,32.114967,-90.625628,2.78,23.5,13.4,34.4,1201,10.4,18.3,10.9,11.8,14.7,4.3,16.0,0.6,1.5,33558,2279,57.6,1675,42.4,5.6,4.7,11.9,16.6,7.6,6.6,14.1,6.1,1.3
464,Cook,Illinois,Chicago,60634,41.93505554272511,-87.77616231389399,3.23,25.4,12.6,71.1,2478,6.2,10.2,5.3,6.7,17.6,15.8,18.3,9.9,7.3,77063,2076,49.1,2151,50.9,6.2,15.9,20.3,11.5,6.9,4.4,8.7,2.8,0.0
465,Tarrant,Texas,Fort Worth,76116,32.736606,-97.437256,1.73,30.1,17.7,59.6,1693,1.2,5.9,5.2,9.4,34.4,8.6,6.7,3.0,3.9,60399,1758,56.2,1370,43.8,4.1,12.5,16.4,14.0,4.8,2.6,12.1,9.8,12.9
466,Orange,California,Garden Grove,92844,33.77389436209922,-117.96965245579301,2.97,23.4,19.1,61.7,4056,6.8,9.1,9.4,5.0,17.1,15.8,11.8,11.7,7.2,64698,3596,47.0,4061,53.0,7.0,15.3,12.7,18.2,8.0,7.5,8.5,2.7,3.7
467,Los Angeles,California,West Covina,91791,34.08048815197661,-117.90767986073772,2.93,22.8,17.1,55.1,1608,10.9,9.6,14.9,7.2,10.6,11.4,8.5,12.0,0.8,38182,1513,40.9,2185,59.1,7.0,10.8,8.5,11.3,6.9,8.5,5.2,10.0,5.4
468,Warren,Ohio,Carlisle,45005,39.579508,-84.3115509,2.51,42.0,9.5,63.3,2476,3.3,13.7,7.5,10.0,19.9,21.4,15.2,4.1,2.6,65483,2363,48.6,2495,51.4,10.5,11.0,11.7,12.8,4.9,6.2,12.1,5.7,2.0
469,Dallas,Texas,Dallas,75204,32.8089787,-96.7886535,1.94,14.5,28.4,82.6,2556,7.2,9.7,3.0,9.5,24.5,20.4,18.2,4.8,5.5,73458,1832,53.8,1573,46.2,22.3,34.6,13.0,9.2,2.2,2.1,0.8,0.4,0.0
470,Berkeley,West Virginia,Martinsburg,25401,39.4623576,-77.9873372,2.66,31.3,11.3,59.4,2902,19.1,9.7,15.8,12.9,20.6,6.9,14.3,1.4,1.3,39522,2527,40.4,3733,59.6,7.4,12.1,11.4,15.3,2.3,5.9,10.3,3.5,1.6
471,Ventura,California,Moorpark,93021,34.2823966,-118.8626311,2.61,14.2,24.9,69.9,3218,5.2,6.6,12.5,11.2,9.0,16.0,20.3,12.1,8.1,88914,2756,46.9,3119,53.1,4.2,17.4,13.8,13.3,6.5,5.1,6.6,6.2,1.4
472,Osceola,Florida,Kissimmee,34746,28.3048142,-81.4603197,3.22,26.9,16.4,62.4,2962,3.5,15.3,8.2,19.6,22.5,5.0,9.2,1.7,3.1,43688,2836,48.9,2961,51.1,5.2,18.9,15.9,21.1,1.8,6.4,8.6,0.2,0.3
473,McLennan,Texas,Waco,76711,31.4973617,-97.1510617,2.74,15.8,20.5,66.9,3568,2.5,6.4,6.0,10.8,17.4,15.1,31.7,3.7,1.7,79357,3145,46.2,3668,53.8,6.3,16.1,12.0,14.5,5.7,5.4,8.5,3.1,2.5
474,McCurtain,Oklahoma,Idabel,74745,33.8959949,-94.8033904,2.78,40.9,9.3,54.2,2425,5.0,13.7,17.5,15.5,15.7,11.2,9.0,3.7,2.5,40670,2938,50.2,2917,49.8,6.6,14.4,12.5,9.7,6.4,4.5,8.6,7.2,1.2
475,,Virginia,Chesapeake,23320,36.7681545879539,-76.24886583288276,2.51,21.3,29.0,70.1,3202,2.5,4.4,1.9,11.0,22.6,20.3,26.0,9.7,4.1,83012,2644,44.3,3329,55.7,5.2,20.9,14.0,13.1,9.4,4.1,9.5,1.6,0.0
476,Marion,Indiana,Indianapolis,46229,39.7764509,-85.98967,2.31,32.4,19.5,56.2,2354,2.1,6.0,8.0,18.4,20.7,21.6,9.9,1.2,4.0,58696,2205,43.8,2835,56.3,12.5,9.9,10.2,10.8,5.8,7.7,18.6,4.6,0.7
477,Indian River,Florida,Vero Beach,32960,27.64621,-80.380947,1.91,21.9,18.7,46.9,1027,4.0,16.7,8.8,14.5,23.6,9.4,10.3,3.9,4.1,50480,1184,49.3,1220,50.7,3.0,7.9,2.1,12.4,8.7,10.2,25.1,9.1,8.7
478,Tarrant,Texas,Fort Worth,76133,32.651479,-97.374646,3.16,28.1,15.2,62.9,3023,1.5,4.7,7.8,10.5,18.2,10.0,22.1,7.1,2.7,68736,3492,46.9,3959,53.1,3.0,13.2,9.2,8.4,8.9,2.9,8.3,3.7,1.7
479,Minnehaha,South Dakota,Sioux Falls,57104,43.5441856,-96.7516157,2.37,33.2,10.4,76.9,1899,3.5,9.1,15.7,24.6,28.9,10.9,5.0,0.8,1.0,46745,1946,57.6,1434,42.4,5.0,15.8,14.3,13.7,4.6,4.5,7.7,1.8,0.7
480,Madison,Idaho,Rexburg,83440,43.825902559888114,-111.78837590696781,3.49,14.7,19.5,62.4,2483,16.3,21.7,10.9,9.6,17.7,6.5,6.8,1.1,5.8,32332,2700,53.8,2323,46.2,23.2,17.1,6.6,3.2,6.2,6.6,5.0,1.4,1.6
481,Potter,Texas,Amarillo,79109,35.18939867673826,-101.88107182396669,1.35,33.3,7.2,71.5,468,1.7,41.3,17.4,19.3,3.2,0.0,0.0,0.0,0.0,22152,266,37.0,453,63.0,6.0,17.9,11.4,15.7,3.9,9.5,8.3,5.3,1.0
482,Spartanburg,South Carolina,Spartanburg,29301,34.9406328,-81.9948426,2.69,19.7,25.2,68.2,5379,5.4,6.4,6.8,13.0,21.4,12.3,15.6,5.1,13.4,69645,4454,45.7,5291,54.3,5.0,17.3,10.9,11.7,7.5,6.1,9.0,5.0,1.9
483,Cascade,Montana,Great Falls,59404,47.517722446245344,-111.31541994137899,2.71,37.0,14.3,70.6,2000,2.5,8.7,6.1,15.5,17.4,25.3,17.6,3.1,5.0,75884,1972,52.6,1775,47.4,5.4,12.7,10.6,9.6,5.8,10.7,8.3,6.4,2.4
484,Fulton,Georgia,Alpharetta,30005,34.0702712,-84.2069365,2.9,5.4,43.2,66.5,2044,7.1,1.1,2.3,0.0,13.2,5.3,14.5,16.7,45.7,170809,1948,50.3,1928,49.7,4.3,1.9,16.4,19.1,7.2,7.4,8.2,3.0,1.3
485,St Johns,Florida,St Johns,32259,30.10294704223733,-81.48238192763807,2.72,29.0,27.6,57.4,4290,2.6,6.5,4.5,9.8,13.8,17.6,20.9,4.5,13.8,81610,5117,53.3,4477,46.7,6.0,11.7,15.4,14.5,4.2,4.7,12.2,5.7,1.3
486,Decatur,Georgia,Bainbridge,39819,30.90446748517884,-84.56364724622671,2.63,32.7,10.7,58.2,2099,10.9,14.2,6.6,12.7,14.2,15.9,13.8,0.5,0.0,42679,2283,43.7,2940,56.3,3.1,14.7,11.6,9.9,8.2,3.8,8.6,3.2,1.2
487,Cook,Illinois,Schaumburg,60173,42.0487417,-88.0487635,2.2,18.1,33.9,73.7,3739,3.4,4.2,5.6,16.0,17.0,18.0,27.1,2.0,3.8,77807,3176,50.1,3169,49.9,4.6,31.1,16.5,9.8,3.7,5.4,4.1,2.1,0.8
488,Tarrant,Texas,Fort Worth,76244,32.95287325806203,-97.28271521409435,3.11,16.1,36.7,58.7,1628,6.2,3.7,2.4,9.8,4.5,14.2,29.1,18.9,17.4,110985,1625,43.9,2074,56.1,4.0,10.7,14.1,17.2,4.5,6.6,3.0,4.5,2.2
489,McCook,South Dakota,Salem,57058,43.7261589,-97.3869861,2.56,37.0,17.0,68.8,1717,2.6,7.2,8.5,9.6,22.7,21.8,12.9,4.8,8.8,71875,1708,51.1,1635,48.9,5.2,8.5,11.6,11.3,6.7,7.2,10.8,5.8,3.3
490,Broward,Florida,Wilton Manors,33311,26.162349,-80.147153,1.68,24.1,20.2,66.9,3191,2.7,1.6,8.2,9.9,15.4,18.9,23.4,7.0,9.5,88708,3303,65.0,1776,35.0,3.0,7.0,15.3,19.3,13.8,14.1,14.8,4.1,2.2
